{"lat":49.260812,"lon":-123.125736,"amenity":"cafe","tags":{"brand:wikidata":"Q37158","official_name":"Starbucks Coffee","addr:housenumber":"2787","brand:wikipedia":"en:Starbucks","opening_hours":"Mo-Th 05:30-19:30; Fr-Su 05:30-20:00","cuisine":"coffee_shop","addr:street":"Laurel Street","takeaway":"yes","brand":"Starbucks"},"opening_hours":{"Mo":14.5,"Tu":14.0,"We":14.0,"Th":14.0,"Fr":14.5,"Sa":14.5,"Su":14.5},"opening_hours_per_week":100.0}
{"lat":49.260953,"lon":-123.125704,"amenity":"fast_food","tags":{"opening_hours":"Mo-Fr 07:00-17:00; Sa 10:00-14:30"},"opening_hours":{"Mo":10.0,"Tu":10.0,"We":10.0,"Th":10.0,"Fr":10.0,"Sa":4.5,"Su":4.5},"opening_hours_per_week":59.0}
{"lat":49.2284004,"lon":-122.8483834,"amenity":"cafe","tags":{"brand:wikidata":"Q175106","addr:housenumber":"1450","brand:wikipedia":"en:Tim Hortons","opening_hours":"24\/7","cuisine":"coffee_shop","addr:street":"United Boulevard","takeaway":"yes","brand":"Tim Hortons"},"opening_hours":{"Mo":24.0,"Tu":24.0,"We":24.0,"Th":24.0,"Fr":24.0,"Sa":24.0,"Su":24.0},"opening_hours_per_week":168.0}
{"lat":49.1712762,"lon":-123.1348734,"amenity":"restaurant","tags":{"addr:housenumber":"8100","phone":"+1-604-370-3738","opening_hours":"Su-Th 11:00-22:30; Fr-Sa 11:00-23:00","cuisine":"chinese","addr:street":"Ackroyd Road","addr:unit":"130","addr:city":"Richmond","name:zh":"\u96f2\u5c1a\u904e\u6a4b\u7c73\u7dda"},"opening_hours":{"Mo":11.5,"Tu":11.5,"We":11.5,"Th":11.5,"Fr":12.0,"Sa":12.0,"Su":12.0},"opening_hours_per_week":82.0}
{"lat":49.2347493,"lon":-123.1547249,"amenity":"fast_food","tags":{"brand:wikidata":"Q38076","wheelchair":"yes","addr:housenumber":"2095","website":"http:\/\/www.mcdonalds.ca\/","internet_access":"wlan","brand:wikipedia":"en:McDonald's","opening_hours":"24\/7","cuisine":"burger","addr:street":"West 41st Avenue","takeaway":"yes","brand":"McDonald's"},"opening_hours":{"Mo":24.0,"Tu":24.0,"We":24.0,"Th":24.0,"Fr":24.0,"Sa":24.0,"Su":24.0},"opening_hours_per_week":168.0}
{"lat":49.2684891,"lon":-123.258088,"amenity":"pub","tags":{"opening_hours":"Mo-Fr 11:30-01:00","addr:housenumber":"6371","website":"http:\/\/koerners.ca\/","addr:street":"Crescent Road","phone":"+1-604-827-1443"},"opening_hours":{"Mo":13.5,"Tu":13.5,"We":13.5,"Th":13.5,"Fr":13.5,"Sa":13.5,"Su":0.0},"opening_hours_per_week":81.0}
{"lat":49.2635825,"lon":-123.1288364,"amenity":"cafe","tags":{"opening_hours":"Mo-Fr 06:00-24:00; Sa-Su 08:00-22:00"},"opening_hours":{"Mo":14.0,"Tu":18.0,"We":18.0,"Th":18.0,"Fr":18.0,"Sa":14.0,"Su":14.0},"opening_hours_per_week":114.0}
{"lat":49.1330851,"lon":-123.0940869,"amenity":"fast_food","tags":{"brand:wikidata":"Q38076","website":"http:\/\/www.mcdonalds.ca\/","internet_access":"wlan","brand:wikipedia":"en:McDonald's","drive_through":"yes","opening_hours":"24\/7","cuisine":"burger","takeaway":"yes","brand":"McDonald's"},"opening_hours":{"Mo":24.0,"Tu":24.0,"We":24.0,"Th":24.0,"Fr":24.0,"Sa":24.0,"Su":24.0},"opening_hours_per_week":168.0}
{"lat":49.268662,"lon":-123.1045109,"amenity":"bar","tags":{"addr:housenumber":"1830","website":"https:\/\/www.facultybrewing.com\/","shop":"alcohol","phone":"+1-778-819-6794","opening_hours":"Mo-Fr 14:00-23:00; Sa-Su 11:00-23:00","outdoor_seating":"no","addr:street":"Ontario Street","addr:postcode":"V5T 2W6","email":"hola@facultybrewing.com","addr:city":"Vancouver"},"opening_hours":{"Mo":12.0,"Tu":9.0,"We":9.0,"Th":9.0,"Fr":9.0,"Sa":12.0,"Su":12.0},"opening_hours_per_week":72.0}
{"lat":49.2672519,"lon":-123.1033949,"amenity":"pub","tags":{"opening_hours":"Su-Tu 11:00-23:00; We-Sa 11:00-00:00","website":"https:\/\/www.randbbrewing.com\/alehouse","phone":"+1-604-336-0275"},"opening_hours":{"Mo":12.0,"Tu":12.0,"We":13.0,"Th":13.0,"Fr":13.0,"Sa":13.0,"Su":13.0},"opening_hours_per_week":89.0}
{"lat":49.2665754,"lon":-123.103744,"amenity":"restaurant","tags":{"opening_hours":"Su-Th 11:00-21:30; Fr-Sa 11:00-22:00","addr:housenumber":"43","website":"http:\/\/www.peacefulrestaurant.com","addr:street":"East 5th Avenue","phone":"+1-604-559-9511"},"opening_hours":{"Mo":10.5,"Tu":10.5,"We":10.5,"Th":10.5,"Fr":11.0,"Sa":11.0,"Su":11.0},"opening_hours_per_week":75.0}
{"lat":49.2866244,"lon":-123.1282577,"amenity":"fast_food","tags":{"addr:housenumber":"1260","website":"https:\/\/chong-qing-restaurant-online-ordering.securebrygid.com","phone":"+1-604-568-0303","opening_hours":"Mo-Su 11:30-22:00","cuisine":"chinese","addr:street":"Robson Street","addr:postcode":"V6E 1C1","addr:city":"Vancouver"},"opening_hours":{"Mo":10.5,"Tu":10.5,"We":10.5,"Th":10.5,"Fr":10.5,"Sa":10.5,"Su":10.5},"opening_hours_per_week":73.5}
{"lat":49.2871553,"lon":-123.1290789,"amenity":"restaurant","tags":{"opening_hours":"24\/7","website":"https:\/\/foragevancouver.com\/","addr:street":"Robson Street","phone":"+1-604-661-1400"},"opening_hours":{"Mo":24.0,"Tu":24.0,"We":24.0,"Th":24.0,"Fr":24.0,"Sa":24.0,"Su":24.0},"opening_hours_per_week":168.0}
{"lat":49.2870445,"lon":-123.128902,"amenity":"restaurant","tags":{"opening_hours":"Mo-Th 12:00-00:00; Fr 12:00-01:00; Sa 11:00-01:00; Su 11:00-00:00","cuisine":"american","addr:housenumber":"1300","addr:street":"Robson Street","addr:city":"Vancouver"},"opening_hours":{"Mo":13.0,"Tu":12.0,"We":12.0,"Th":12.0,"Fr":13.0,"Sa":14.0,"Su":13.0},"opening_hours_per_week":89.0}
{"lat":49.2874858,"lon":-123.1289807,"amenity":"restaurant","tags":{"addr:housenumber":"1335","phone":"+1-604-681-0339","smoking":"no","opening_hours":"Mo-Fr 11:30-14:00,17:00-21:30; Sa 17:00-21:30","cuisine":"japanese;sushi","outdoor_seating":"no","addr:street":"Robson Street","addr:postcode":"V6E 1C6","addr:city":"Vancouver"},"opening_hours":{"Mo":2.5,"Tu":2.5,"We":2.5,"Th":2.5,"Fr":2.5,"Sa":4.5,"Su":4.5},"opening_hours_per_week":21.5}
{"lat":49.0558043,"lon":-122.2722298,"amenity":"fast_food","tags":{"opening_hours":"Mo-Fr 07:00-22:00; Sa-Su 08:00-22:00","cuisine":"sandwich","website":"http:\/\/subway.ca","ref":"Store #67123","phone":"+1-604-776-1122"},"opening_hours":{"Mo":14.0,"Tu":15.0,"We":15.0,"Th":15.0,"Fr":15.0,"Sa":14.0,"Su":14.0},"opening_hours_per_week":102.0}
{"lat":49.2821452,"lon":-123.0762115,"amenity":"bar","tags":{"addr:housenumber":"1338","website":"http:\/\/www.callisterbrewing.com\/","shop":"alcohol","phone":"+1-604-569-2739","opening_hours":"Mo-Th 14:00-21:00; Fr 14:00-22:00,09:00-18:00; Sa 13:00-22:00; Su 13:00-20:00","outdoor_seating":"no","addr:street":"Franklin Street","addr:postcode":"V5L 1N9","email":"info@callisterbrewing.com","addr:city":"Vancouver"},"opening_hours":{"Mo":7.0,"Tu":7.0,"We":7.0,"Th":7.0,"Fr":8.0,"Sa":9.0,"Su":7.0},"opening_hours_per_week":52.0}
{"lat":49.2833626,"lon":-123.0757512,"amenity":"bar","tags":{"opening_hours":"Mo-Th 14:00-21:00; Fr-Sa 12:00-22:00; Su 12:00-21:00","website":"https:\/\/www.powellbeer.com\/","shop":"alcohol","email":"tim@powellbeer.com"},"opening_hours":{"Mo":9.0,"Tu":7.0,"We":7.0,"Th":7.0,"Fr":10.0,"Sa":10.0,"Su":9.0},"opening_hours_per_week":59.0}
{"lat":49.2724958,"lon":-123.0777288,"amenity":"bar","tags":{"opening_hours":"Mo-Su 12:00-23:00","website":"https:\/\/strangefellowsbrewing.com\/","shop":"alcohol","outdoor_seating":"no","phone":"+1-604-215-0092"},"opening_hours":{"Mo":11.0,"Tu":11.0,"We":11.0,"Th":11.0,"Fr":11.0,"Sa":11.0,"Su":11.0},"opening_hours_per_week":77.0}
{"lat":49.2821191,"lon":-123.1336624,"amenity":"restaurant","tags":{"addr:province":"BC","opening_hours":"Mo-Th 11:30-22:00; Fr 11:30-22:30; Sa 12:00-22:30; Su 12:00-22:00","addr:housenumber":"1231","addr:street":"Davie Street","addr:city":"Vancouver"},"opening_hours":{"Mo":10.0,"Tu":10.5,"We":10.5,"Th":10.5,"Fr":11.0,"Sa":10.5,"Su":10.0},"opening_hours_per_week":73.0}
{"lat":49.2842686,"lon":-123.1197597,"amenity":"fast_food","tags":{"opening_hours":"Mo-Fr 07:00-15:00","cuisine":"sandwich","website":"http:\/\/www.smokehousesandwich.ca","phone":"+1-604-620-0766"},"opening_hours":{"Mo":8.0,"Tu":8.0,"We":8.0,"Th":8.0,"Fr":8.0,"Sa":8.0,"Su":0.0},"opening_hours_per_week":48.0}
{"lat":49.2387806,"lon":-123.0316319,"amenity":"cafe","tags":{"brand:wikidata":"Q175106","wheelchair":"yes","website":"https:\/\/www.timhortons.com\/","internet_access":"wlan","brand:wikipedia":"en:Tim Hortons","cuisine":"coffee_shop","takeaway":"yes","addr:city":"Vancouver","addr:housenumber":"5055","phone":"+1-604-433-3354","smoking":"no","opening_hours":"24\/7","addr:street":"Joyce Street","brand":"Tim Hortons"},"opening_hours":{"Mo":24.0,"Tu":24.0,"We":24.0,"Th":24.0,"Fr":24.0,"Sa":24.0,"Su":24.0},"opening_hours_per_week":168.0}
{"lat":49.2641324,"lon":-123.1816701,"amenity":"cafe","tags":{"opening_hours":"Mo-Fr 08:00-18:00; Sa-Su 09:00-18:00","addr:housenumber":"3498","addr:street":"W Broadway"},"opening_hours":{"Mo":9.0,"Tu":10.0,"We":10.0,"Th":10.0,"Fr":10.0,"Sa":9.0,"Su":9.0},"opening_hours_per_week":67.0}
{"lat":49.2842068,"lon":-123.1002041,"amenity":"pub","tags":{"opening_hours":"Mo-Th 17:00-23:30; Fr 17:00-00:30; Sa 10:00-14:45,17:00-00:30; Su 10:00-14:45,17:00-23:30","addr:housenumber":"157","website":"http:\/\/www.alibi.ca\/","addr:street":"Alexander Street"},"opening_hours":{"Mo":4.75,"Tu":6.5,"We":6.5,"Th":6.5,"Fr":7.5,"Sa":4.75,"Su":4.75},"opening_hours_per_week":41.25}
{"lat":49.2633356,"lon":-123.1144174,"amenity":"fast_food","tags":{"addr:housenumber":"467","opening_hours":"Mo-Su 00:00-24:00","cuisine":"burger","outdoor_seating":"no","addr:street":"West Broadway","addr:postcode":"V5Y 1R4","addr:city":"Vancouver"},"opening_hours":{"Mo":24.0,"Tu":24.0,"We":24.0,"Th":24.0,"Fr":24.0,"Sa":24.0,"Su":24.0},"opening_hours_per_week":168.0}
{"lat":49.2630977,"lon":-123.1172998,"amenity":"cafe","tags":{"opening_hours":"Mo-Su 07:00-19:00","cuisine":"coffee_shop","addr:housenumber":"590","addr:street":"West Broadway","source":"http:\/\/www.elysiancoffee.com\/"},"opening_hours":{"Mo":12.0,"Tu":12.0,"We":12.0,"Th":12.0,"Fr":12.0,"Sa":12.0,"Su":12.0},"opening_hours_per_week":84.0}
{"lat":49.1797273,"lon":-123.137991,"amenity":"cafe","tags":{"phone":"+1-604-273-0373","level":"0","opening_hours":"11:00-20:00","cuisine":"chinese","addr:unit":"135","name:zh":"\u4fdd\u7f85\u7f8e\u98df"},"opening_hours":{"Mo":9.0,"Tu":9.0,"We":9.0,"Th":9.0,"Fr":9.0,"Sa":9.0,"Su":9.0},"opening_hours_per_week":63.0}
{"lat":49.1795513,"lon":-123.1375541,"amenity":"restaurant","tags":{"alt_name":"FuKuRoKu Express","website":"http:\/\/www.eatalot.ca","phone":"+1-604-279-0922","level":"0","opening_hours":"08:00-23:00","cuisine":"sushi","addr:unit":"155"},"opening_hours":{"Mo":15.0,"Tu":15.0,"We":15.0,"Th":15.0,"Fr":15.0,"Sa":15.0,"Su":15.0},"opening_hours_per_week":105.0}
{"lat":49.2848652,"lon":-123.125665,"amenity":"restaurant","tags":{"addr:housenumber":"1116","website":"http:\/\/spicy6.com","phone":"+1-604-336-7999","opening_hours":"Mo-Su 11:30-22:00","cuisine":"indian","addr:street":"Robson Street","fax":"+1-604-336-7997","addr:postcode":"V6E 1B2","email":"eat@spicy6.com","addr:city":"Vancouver"},"opening_hours":{"Mo":10.5,"Tu":10.5,"We":10.5,"Th":10.5,"Fr":10.5,"Sa":10.5,"Su":10.5},"opening_hours_per_week":73.5}
{"lat":49.1767616,"lon":-122.689973,"amenity":"cafe","tags":{"opening_hours":"24\/7","addr:housenumber":"19218","addr:street":"96 Avenue","internet_access":"wlan"},"opening_hours":{"Mo":24.0,"Tu":24.0,"We":24.0,"Th":24.0,"Fr":24.0,"Sa":24.0,"Su":24.0},"opening_hours_per_week":168.0}
{"lat":49.2501163,"lon":-122.8923026,"amenity":"fast_food","tags":{"brand:wikidata":"Q38076","internet_access":"wlan","brand:wikipedia":"en:McDonald's","opening_hours":"24\/7","cuisine":"burger","addr:street":"North Road","takeaway":"yes","brand":"McDonald's"},"opening_hours":{"Mo":24.0,"Tu":24.0,"We":24.0,"Th":24.0,"Fr":24.0,"Sa":24.0,"Su":24.0},"opening_hours_per_week":168.0}
{"lat":49.2492264,"lon":-123.1007752,"amenity":"cafe","tags":{"opening_hours":"Mo-Fr 06:00-18:30; Sa,Su 06:30-18:30","addr:housenumber":"4010","name:en":"Caffe Artigiano","addr:street":"Main Street"},"opening_hours":{"Mo":12.0,"Tu":12.5,"We":12.5,"Th":12.5,"Fr":12.5,"Sa":12.0,"Su":12.0},"opening_hours_per_week":86.0}
{"lat":49.1872417,"lon":-123.131495,"amenity":"restaurant","tags":{"addr:housenumber":"1226-8338","website":"https:\/\/www.thecaptainsboil.com\/","phone":"+1-604-279-0158","opening_hours":"Su-Th 23:00-12:00; Fr-Sa 23:00-13:00","cuisine":"seafood","addr:street":"Capstan Way","addr:postcode":"V6X 4B5","addr:city":"Richmond"},"opening_hours":{"Mo":13.0,"Tu":13.0,"We":13.0,"Th":13.0,"Fr":14.0,"Sa":14.0,"Su":14.0},"opening_hours_per_week":94.0}
{"lat":49.1874849,"lon":-123.1312122,"amenity":"restaurant","tags":{"opening_hours":"Mo-Su 05:00-13:00","cuisine":"japanese","addr:housenumber":"#1028-8300","name:en":"Kyabia"},"opening_hours":{"Mo":8.0,"Tu":8.0,"We":8.0,"Th":8.0,"Fr":8.0,"Sa":8.0,"Su":8.0},"opening_hours_per_week":56.0}
{"lat":49.2766268,"lon":-123.1001058,"amenity":"restaurant","tags":{"addr:housenumber":"915","website":"http:\/\/www.pizzeriafarina.com","phone":"+1-604-681-9334","opening_hours":"Mo-Su 17:00-22:00","cuisine":"pizza","name:en":"Pizza Farina","addr:street":"Main Street"},"opening_hours":{"Mo":5.0,"Tu":5.0,"We":5.0,"Th":5.0,"Fr":5.0,"Sa":5.0,"Su":5.0},"opening_hours_per_week":35.0}
{"lat":49.0497717,"lon":-122.3189143,"amenity":"cafe","tags":{"opening_hours":"PH,Su 11:00-17:00; Mo-We,Sa 09:30-17:30; Th,Fr 09:30-21:00","addr:unit":"24A"},"opening_hours":{"Mo":8.0,"Tu":8.0,"We":8.0,"Th":11.5,"Fr":11.5,"Sa":11.5,"Su":8.0},"opening_hours_per_week":66.5}
{"lat":49.2743218,"lon":-123.1269429,"amenity":"restaurant","tags":{"addr:housenumber":"1375","website":"http:\/\/vancouverkaidesushi.com","phone":"+1-604-681-5886","opening_hours":"Tu-Th 11:30-21:00; Sa 17:00-22:00; Fr 11:30-22:00","cuisine":"sushi","name:en":"Kaide Sushi Bar","addr:street":"Richards Street","addr:postcode":"V6Z 2X6","addr:city":"Vancouver"},"opening_hours":{"Mo":0.0,"Tu":9.5,"We":9.5,"Th":9.5,"Fr":10.5,"Sa":10.5,"Su":5.0},"opening_hours_per_week":54.5}
{"lat":49.197754,"lon":-123.1407889,"amenity":"cafe","tags":{"website":"https:\/\/www.caffeartigiano.com","internet_access":"wlan","internet_access:fee":"no","opening_hours":"Mo-Sa 09:00-21:00; Su,PH 09:00-19:00","outdoor_seating":"yes","addr:unit":"82"},"opening_hours":{"Mo":10.0,"Tu":12.0,"We":12.0,"Th":12.0,"Fr":12.0,"Sa":12.0,"Su":10.0},"opening_hours_per_week":80.0}
{"lat":49.1250427,"lon":-123.1853319,"amenity":"restaurant","tags":{"addr:housenumber":"3420","website":"https:\/\/kisamostaverna.com\/","phone":"+1-604-277-5626","opening_hours":"Mo-Fr 11:30-21:00; Sa 11:00-21:30; Su 12:30-21:30","cuisine":"greek","addr:street":"Moncton Street","addr:city":"Richmond"},"opening_hours":{"Mo":9.0,"Tu":9.5,"We":9.5,"Th":9.5,"Fr":9.5,"Sa":10.5,"Su":9.0},"opening_hours_per_week":66.5}
{"lat":49.2725297,"lon":-123.0562043,"amenity":"fast_food","tags":{"delivery":"yes","addr:housenumber":"1386","drive_through":"no","opening_hours":"Su-Th 11:00-00:00; Fr,Sa 11:00-01:00; PH 11:00-00:00","cuisine":"pizza","addr:street":"Nanaimo Street","addr:city":"Vancouver"},"opening_hours":{"Mo":13.0,"Tu":13.0,"We":13.0,"Th":13.0,"Fr":14.0,"Sa":14.0,"Su":14.0},"opening_hours_per_week":94.0}
{"lat":49.2687365,"lon":-123.0457293,"amenity":"restaurant","tags":{"opening_hours":"Tu-Sa 11:30-21:00; Su 12:00-21:00","phone":"+16016200200","level":"0"},"opening_hours":{"Mo":9.0,"Tu":9.5,"We":9.5,"Th":9.5,"Fr":9.5,"Sa":9.5,"Su":9.0},"opening_hours_per_week":65.5}
{"lat":49.2813057,"lon":-123.1079703,"amenity":"restaurant","tags":{"addr:housenumber":"117","internet_access":"wlan","phone":"+1-778-379-2588","opening_hours":"Mo-Fr 11:30-00:00; Sa 12:00-00:00","cuisine":"japanese;sushi","outdoor_seating":"no","addr:street":"West Pender Street","addr:postcode":"V6B 1S5","takeaway":"yes","email":"miraisushi117@gmail.com"},"opening_hours":{"Mo":12.5,"Tu":12.5,"We":12.5,"Th":12.5,"Fr":12.5,"Sa":12.0,"Su":12.0},"opening_hours_per_week":86.5}
{"lat":49.2762369,"lon":-122.8445501,"amenity":"restaurant","tags":{"addr:housenumber":"3003","website":"http:\/\/www.namoosushi.com","phone":"+1-604-949-1017","opening_hours":"Mo-Th 11:30-15:00,16:30-20:30; Fr-Sa 11:30-15:00,16:30-21:30","cuisine":"sushi","addr:street":"Saint Johns Street","addr:unit":"101"},"opening_hours":{"Mo":3.5,"Tu":3.5,"We":3.5,"Th":3.5,"Fr":3.5,"Sa":3.5,"Su":3.5},"opening_hours_per_week":24.5}
{"lat":49.1152983,"lon":-122.6790538,"amenity":"restaurant","tags":{"website":"https:\/\/www.langleysushimori.com\/","air_conditioning":"yes","cuisine":"japanese","takeaway":"yes","addr:unit":"160","addr:city":"Langley","addr:housenumber":"19653","phone":"+1-604-510-1538","smoking":"no","opening_hours":"Su-We 11:30-22:30; Th-Sa 11:30-23:00","outdoor_seating":"no","addr:street":"Willowbrook Drive"},"opening_hours":{"Mo":11.0,"Tu":11.0,"We":11.0,"Th":11.5,"Fr":11.5,"Sa":11.5,"Su":11.5},"opening_hours_per_week":79.0}
{"lat":49.1758794,"lon":-122.8907911,"amenity":"restaurant","tags":{"addr:housenumber":"9545","website":"http:\/\/mirchmasaladelta.ca\/","phone":"+1-604-588-7795","opening_hours":"Mo-Th, Su 11:30-22:30; Fr, Sa 11:30-23:00","cuisine":"indian","addr:street":"Scott Road"},"opening_hours":{"Mo":11.0,"Tu":11.0,"We":11.0,"Th":11.0,"Fr":11.5,"Sa":11.5,"Su":11.5},"opening_hours_per_week":78.5}
{"lat":49.1764733,"lon":-122.8896127,"amenity":"restaurant","tags":{"opening_hours":"Su-Th 11:30-22:00; Fr-Sa 11:30-22:30","cuisine":"indian","addr:housenumber":"9570","addr:street":"Scott Road","phone":"+1-604-587-3200"},"opening_hours":{"Mo":10.5,"Tu":10.5,"We":10.5,"Th":10.5,"Fr":11.0,"Sa":11.0,"Su":11.0},"opening_hours_per_week":75.0}
{"lat":49.1911509,"lon":-122.8066783,"amenity":"restaurant","tags":{"wheelchair":"yes","addr:housenumber":"10391","website":"https:\/\/www.sabaithaicuisine.ca\/","phone":"+1-604-588-9819","smoking":"no","opening_hours":"Mo-Fr 11:30-14:00,17:00-21:00; Sa 17:00-21:00","cuisine":"thai","addr:street":"150 Street","addr:postcode":"V3R 7C1","addr:city":"Surrey"},"opening_hours":{"Mo":2.5,"Tu":2.5,"We":2.5,"Th":2.5,"Fr":2.5,"Sa":4.0,"Su":4.0},"opening_hours_per_week":20.5}
{"lat":49.1863982,"lon":-122.8444496,"amenity":"restaurant","tags":{"addr:housenumber":"10102","website":"http:\/\/www.fresgorestaurant.com\/","phone":"+1-604-588-0878","opening_hours":"Mo-Th 08:00-22:00; Fr-Sa 08:00-23:00; Su 09:00-22:00","cuisine":"american","name:en":"Fresgo Inn Restaurant","addr:street":"King George Boulevard"},"opening_hours":{"Mo":13.0,"Tu":14.0,"We":14.0,"Th":14.0,"Fr":15.0,"Sa":15.0,"Su":13.0},"opening_hours_per_week":98.0}
{"lat":49.1876113,"lon":-122.8435939,"amenity":"restaurant","tags":{"addr:housenumber":"13650","website":"http:\/\/www.nahm.ca\/","phone":"+1-604-930-8833","opening_hours":"Mo-Sa 11:00-21:15","cuisine":"thai","addr:street":"102 Avenue","addr:unit":"102"},"opening_hours":{"Mo":10.25,"Tu":10.25,"We":10.25,"Th":10.25,"Fr":10.25,"Sa":10.25,"Su":10.25},"opening_hours_per_week":71.75}
{"lat":49.2567827,"lon":-123.184916,"amenity":"fast_food","tags":{"brand:wikidata":"Q1141226","brand:wikipedia":"en:Dairy Queen","opening_hours":"Mo-Su 10:30-22:00","cuisine":"ice_cream;burger","name:en":"Dairy Queen","takeaway":"yes","brand":"Dairy Queen"},"opening_hours":{"Mo":11.5,"Tu":11.5,"We":11.5,"Th":11.5,"Fr":11.5,"Sa":11.5,"Su":11.5},"opening_hours_per_week":80.5}
{"lat":49.2254234,"lon":-123.0655278,"amenity":"restaurant","tags":{"opening_hours":"Tu-Su 08:00-18:00; Mo 08:00-14:00","addr:housenumber":"6482","name:en":"Victoria Restaurant","addr:street":"Victoria Drive","phone":"+1-604-325-2412"},"opening_hours":{"Mo":6.0,"Tu":6.0,"We":10.0,"Th":10.0,"Fr":10.0,"Sa":10.0,"Su":10.0},"opening_hours_per_week":62.0}
{"lat":49.2290279,"lon":-122.9989508,"amenity":"cafe","tags":{"website":"http:\/\/wee.cafejoie.com","internet_access":"yes","internet_access:fee":"yes","cuisine":"tea;dessert;espresso","addr:unit":"110","addr:city":"Burnaby","addr:housenumber":"6125","internet_access:ssid":"Mustache-guest","opening_hours":"Su-Fr 09:00-23:00; Sa 10:00-23:00","name:en":"Mr. Mustache Tea & Dessert","outdoor_seating":"yes","addr:street":"Sussex Avenue"},"opening_hours":{"Mo":14.0,"Tu":14.0,"We":14.0,"Th":14.0,"Fr":14.0,"Sa":13.0,"Su":13.0},"opening_hours_per_week":96.0}
{"lat":49.0498661,"lon":-122.311635,"amenity":"fast_food","tags":{"brand:wikidata":"Q244457","level":"0","brand:wikipedia":"en:Subway (restaurant)","cuisine":"sandwich","addr:postcode":"V2S 5A1","takeaway":"yes","addr:unit":"404","addr:housenumber":"32900","opening_hours":"Mo,Tu,Sa 09:30-18:00; We-Fr 09:30-21:00; Su,PH 11:00-18:00","indoor":"yes","addr:street":"South Fraser Way","brand":"Subway"},"opening_hours":{"Mo":7.0,"Tu":8.5,"We":11.5,"Th":11.5,"Fr":11.5,"Sa":11.5,"Su":7.0},"opening_hours_per_week":68.5}
{"lat":49.0498031,"lon":-122.3114531,"amenity":"fast_food","tags":{"brand:wikidata":"Q2818848","website":"http:\/\/aw.ca","internet_access":"wlan","level":"0","brand:wikipedia":"en:A&W (Canada)","internet_access:fee":"no","cuisine":"burger","addr:postcode":"V2S 5A1","takeaway":"yes","addr:unit":"402","addr:housenumber":"32900","opening_hours":"Mo,Tu,Sa 09:30-18:00; We-Fr 09:30-21:00; Su,PH 11:00-18:00","indoor":"yes","outdoor_seating":"no","addr:street":"South Fraser Way","brand":"A&W"},"opening_hours":{"Mo":7.0,"Tu":8.5,"We":11.5,"Th":11.5,"Fr":11.5,"Sa":11.5,"Su":7.0},"opening_hours_per_week":68.5}
{"lat":49.0495367,"lon":-122.3117487,"amenity":"fast_food","tags":{"official_name":"Dairy Queen Orange Julius Treat Centre","addr:housenumber":"32900","website":"http:\/\/www.orangejulius.com","level":"0","opening_hours":"Mo,Tu,Sa 09:30-18:00; We-Fr 09:30-21:00; Su,PH 11:00-18:00","cuisine":"juice","indoor":"yes","addr:street":"South Fraser Way","addr:postcode":"V2S 5A1","addr:unit":"410"},"opening_hours":{"Mo":7.0,"Tu":8.5,"We":11.5,"Th":11.5,"Fr":11.5,"Sa":11.5,"Su":7.0},"opening_hours_per_week":68.5}
{"lat":49.0496405,"lon":-122.3118348,"amenity":"fast_food","tags":{"brand:wikidata":"Q7013558","website":"https:\/\/m.facebook.com\/nyfsevenoaks","level":"0","brand:wikipedia":"en:New York Fries","cuisine":"fries","addr:postcode":"V2S 5A1","takeaway":"yes","addr:unit":"409","url":"http:\/\/www.newyorkfries.com","addr:housenumber":"32900","opening_hours":"Mo,Tu,Sa 09:30-18:00; We-Fr 09:30-21:00; Su,PH 11:00-18:00","indoor":"yes","addr:street":"South Fraser Way","brand":"New York Fries"},"opening_hours":{"Mo":7.0,"Tu":8.5,"We":11.5,"Th":11.5,"Fr":11.5,"Sa":11.5,"Su":7.0},"opening_hours_per_week":68.5}
{"lat":49.0495887,"lon":-122.3117934,"amenity":"fast_food","tags":{"addr:housenumber":"32900","website":"https:\/\/opasouvlaki.ca\/","phone":"+1-604-746-5559","level":"0","opening_hours":"Mo,Tu,Sa 09:30-18:00; We-Fr 09:30-21:00; Su,PH 11:00-18:00","cuisine":"greek","indoor":"yes","addr:street":"South Fraser Way","addr:postcode":"V2S 5A1","addr:unit":"410"},"opening_hours":{"Mo":7.0,"Tu":8.5,"We":11.5,"Th":11.5,"Fr":11.5,"Sa":11.5,"Su":7.0},"opening_hours_per_week":68.5}
{"lat":49.0498388,"lon":-122.3117035,"amenity":"fast_food","tags":{"brand:wikidata":"Q6747622","website":"https:\/\/manchuwok.com\/","level":"0","brand:wikipedia":"en:Manchu Wok","cuisine":"chinese","addr:postcode":"V2S 5A1","takeaway":"yes","addr:unit":"405","addr:housenumber":"32900","opening_hours":"Mo,Tu,Sa 09:30-18:00; We-Fr 09:30-21:00; Su,PH 11:00-18:00","indoor":"yes","addr:street":"South Fraser Way","brand":"Manchu Wok"},"opening_hours":{"Mo":7.0,"Tu":8.5,"We":11.5,"Th":11.5,"Fr":11.5,"Sa":11.5,"Su":7.0},"opening_hours_per_week":68.5}
{"lat":49.0496845,"lon":-122.311872,"amenity":"fast_food","tags":{"addr:housenumber":"32900","level":"0","opening_hours":"Mo,Tu,Sa 09:30-18:00; We-Fr 09:30-21:00; Su,PH 11:00-18:00","cuisine":"japanese","indoor":"yes","addr:street":"South Fraser Way","addr:postcode":"V2S 5A1","addr:unit":"408"},"opening_hours":{"Mo":7.0,"Tu":8.5,"We":11.5,"Th":11.5,"Fr":11.5,"Sa":11.5,"Su":7.0},"opening_hours_per_week":68.5}
{"lat":49.0497721,"lon":-122.311822,"amenity":"fast_food","tags":{"brand:wikidata":"Q5503082","level":"0","brand:wikipedia":"en:Freshslice Pizza","cuisine":"pizza","addr:postcode":"V2S 5A1","takeaway":"yes","addr:unit":"407","addr:housenumber":"32900","opening_hours":"Mo,Tu,Sa 09:30-18:00; We-Fr 09:30-21:00; Su,PH 11:00-18:00","indoor":"yes","addr:street":"South Fraser Way","brand":"Freshslice Pizza"},"opening_hours":{"Mo":7.0,"Tu":8.5,"We":11.5,"Th":11.5,"Fr":11.5,"Sa":11.5,"Su":7.0},"opening_hours_per_week":68.5}
{"lat":49.049844,"lon":-122.3115361,"amenity":"fast_food","tags":{"website":"https:\/\/www.thaiexpress.ca","internet_access":"wlan","level":"0","internet_access:fee":"no","cuisine":"thai","addr:postcode":"V2S 5A1","addr:unit":"403","addr:housenumber":"32900","alt_name":"Thai Express","opening_hours":"Mo,Tu,Sa 09:30-18:00; We-Fr 09:30-21:00; Su,PH 11:00-18:00","indoor":"yes","addr:street":"South Fraser Way"},"opening_hours":{"Mo":7.0,"Tu":8.5,"We":11.5,"Th":11.5,"Fr":11.5,"Sa":11.5,"Su":7.0},"opening_hours_per_week":68.5}
{"lat":49.2458146,"lon":-123.0900087,"amenity":"restaurant","tags":{"wheelchair":"yes","addr:housenumber":"4376","phone":"+1-604-428-6272","smoking":"no","opening_hours":"Mo-Sa 18:00-22:00; Su off","cuisine":"japanese","addr:street":"Fraser Street","takeaway":"yes","addr:city":"Vancouver"},"opening_hours":{"Mo":0.0,"Tu":4.0,"We":4.0,"Th":4.0,"Fr":4.0,"Sa":4.0,"Su":0.0},"opening_hours_per_week":20.0}
{"lat":49.1524881,"lon":-122.8900312,"amenity":"restaurant","tags":{"addr:housenumber":"8220","website":"https:\/\/chong-qing-restaurant-surrey.securebrygid.com\/zgrid\/themes\/11951\/portal\/index.jsp","phone":"+1-604-593-6929","opening_hours":"Su-Sa 11:00-22:00","cuisine":"chinese","addr:street":"Scott Road"},"opening_hours":{"Mo":0.0,"Tu":0.0,"We":0.0,"Th":0.0,"Fr":0.0,"Sa":0.0,"Su":11.0},"opening_hours_per_week":11.0}
{"lat":49.2513521,"lon":-123.1011962,"amenity":"restaurant","tags":{"addr:housenumber":"3755","website":"http:\/\/www.boblikesthaifood.com","phone":"+1-604-568-8538","opening_hours":"Mo-Su 11:30-22:00","cuisine":"thai","addr:street":"Main Street","addr:postcode":"V5N 3N8","email":"boblikesthaifood@gmail.com"},"opening_hours":{"Mo":10.5,"Tu":10.5,"We":10.5,"Th":10.5,"Fr":10.5,"Sa":10.5,"Su":10.5},"opening_hours_per_week":73.5}
{"lat":49.2507803,"lon":-123.1011735,"amenity":"restaurant","tags":{"addr:housenumber":"3825","website":"https:\/\/www.thefishcounter.com\/","phone":"+1-604-876-3474","opening_hours":"Th-Mo 10:00-20:00","cuisine":"fish_and_chips","addr:street":"Main Street"},"opening_hours":{"Mo":10.0,"Tu":10.0,"We":0.0,"Th":10.0,"Fr":10.0,"Sa":10.0,"Su":10.0},"opening_hours_per_week":60.0}
{"lat":49.1698396,"lon":-122.889851,"amenity":"restaurant","tags":{"wheelchair":"yes","delivery":"yes","addr:housenumber":"9164","website":"http:\/\/thaibythaibc.ca\/","phone":"+1-604-593-5244","smoking":"no","opening_hours":"Mo-Fr 11:30-15:00,17:00-22:00; Sa 17:00-22:00; Su 11:30-15:00,17:00-21:00","cuisine":"thai","addr:street":"Scott Road","takeaway":"yes"},"opening_hours":{"Mo":3.5,"Tu":3.5,"We":3.5,"Th":3.5,"Fr":3.5,"Sa":5.0,"Su":3.5},"opening_hours_per_week":26.0}
{"lat":49.1542575,"lon":-122.8908904,"amenity":"restaurant","tags":{"addr:housenumber":"8295","website":"http:\/\/tastybistro.com","phone":"+1-604-507-9393","opening_hours":"Su-Sa 11:30-23:00","cuisine":"indian","addr:street":"Scott Road"},"opening_hours":{"Mo":0.0,"Tu":0.0,"We":0.0,"Th":0.0,"Fr":0.0,"Sa":0.0,"Su":11.5},"opening_hours_per_week":11.5}
{"lat":49.1654474,"lon":-122.8898095,"amenity":"restaurant","tags":{"addr:housenumber":"8910","website":"https:\/\/www.krishnasdosagrill.com\/","phone":"+1-604-599-7010","opening_hours":"Mo-Th 11:30-21:30; Fr-Su 11:30-22:00","cuisine":"indian","addr:street":"Scott Road"},"opening_hours":{"Mo":10.5,"Tu":10.0,"We":10.0,"Th":10.0,"Fr":10.5,"Sa":10.5,"Su":10.5},"opening_hours_per_week":72.0}
{"lat":49.1637058,"lon":-122.8909132,"amenity":"restaurant","tags":{"addr:housenumber":"8821","website":"https:\/\/www.desijunctionrestaurant.com\/","phone":"+1-604-592-6360","opening_hours":"Mo-Th, Su 11:00-23:00; Fr, Sa 11:00-23:30","cuisine":"indian","addr:street":"Scott Road"},"opening_hours":{"Mo":12.0,"Tu":12.0,"We":12.0,"Th":12.0,"Fr":12.5,"Sa":12.5,"Su":12.5},"opening_hours_per_week":85.5}
{"lat":49.1754035,"lon":-123.1342502,"amenity":"restaurant","tags":{"addr:housenumber":"5300","website":"http:\/\/richmond9.com\/","phone":"+1-604-278-7700","smoking":"no","opening_hours":"24\/7","cuisine":"chinese","addr:street":"Number 3 Road","addr:unit":"812"},"opening_hours":{"Mo":24.0,"Tu":24.0,"We":24.0,"Th":24.0,"Fr":24.0,"Sa":24.0,"Su":24.0},"opening_hours_per_week":168.0}
{"lat":49.2630367,"lon":-123.1013042,"amenity":"fast_food","tags":{"brand:wikidata":"Q5503082","addr:housenumber":"183","brand:wikipedia":"en:Freshslice Pizza","opening_hours":"Mo-We 10:00-01:00; Th 10:00-02:00; Fr 10:00-03:30; Sa 11:00-03:30; Su 11:00-23:00","cuisine":"pizza","name:en":"Freshslice Pizza","addr:street":"East Broadway","takeaway":"yes","brand":"Freshslice Pizza"},"opening_hours":{"Mo":12.0,"Tu":15.0,"We":15.0,"Th":16.0,"Fr":17.5,"Sa":16.5,"Su":12.0},"opening_hours_per_week":104.0}
{"lat":49.2630411,"lon":-123.1015414,"amenity":"restaurant","tags":{"opening_hours":"Mo-Fr 10:00-22:00; Sa 09:30-22:00; Su 09:30-15:00","addr:housenumber":"151","name:en":"Fable Diner","addr:street":"East Broadway"},"opening_hours":{"Mo":5.5,"Tu":12.0,"We":12.0,"Th":12.0,"Fr":12.0,"Sa":12.5,"Su":5.5},"opening_hours_per_week":71.5}
{"lat":49.0513372,"lon":-122.691921,"amenity":"cafe","tags":{"opening_hours":"24\/7","addr:housenumber":"2711","addr:street":"192 Street","internet_access":"wlan"},"opening_hours":{"Mo":24.0,"Tu":24.0,"We":24.0,"Th":24.0,"Fr":24.0,"Sa":24.0,"Su":24.0},"opening_hours_per_week":168.0}
{"lat":49.1997306,"lon":-122.7784622,"amenity":"fast_food","tags":{"website":"https:\/\/web.aw.ca\/en\/our-menu","internet_access":"wlan","internet_access:fee":"no","cuisine":"burger;chicken;coffee_shop","addr:postcode":"V4N 1P2","addr:unit":"101","addr:city":"Surrey","addr:housenumber":"16033","smoking":"no","opening_hours":"Mo-Su 06:00-22:00","outdoor_seating":"yes","addr:street":"108 Avenue"},"opening_hours":{"Mo":16.0,"Tu":16.0,"We":16.0,"Th":16.0,"Fr":16.0,"Sa":16.0,"Su":16.0},"opening_hours_per_week":112.0}
{"lat":49.2814683,"lon":-123.1172443,"amenity":"restaurant","tags":{"website":"https:\/\/www.glowbalgroup.com\/glowbal","air_conditioning":"yes","level":"0","addr:postcode":"V6E 1A3","addr:city":"Vancouver","addr:housenumber":"590","bar":"yes","phone":"+1-604-602-0835","smoking":"no","opening_hours":"Mo-We 11:00-00:00; Th 11:00-01:00; Fr 11:00-14:00; Sa 10:00-14:00; Su 10:00-00:00","reservation":"yes","outdoor_seating":"yes","addr:street":"West Georgia Street","email":"info@glowbal.ca"},"opening_hours":{"Mo":14.0,"Tu":13.0,"We":13.0,"Th":14.0,"Fr":3.0,"Sa":4.0,"Su":14.0},"opening_hours_per_week":75.0}
{"lat":49.2182564,"lon":-123.0773813,"amenity":"fast_food","tags":{"brand:wikidata":"Q38076","addr:housenumber":"7295","website":"http:\/\/www.mcdonalds.ca\/","internet_access":"wlan","brand:wikipedia":"en:McDonald's","opening_hours":"24\/7","cuisine":"burger","addr:street":"Knight Street","takeaway":"yes","brand":"McDonald's"},"opening_hours":{"Mo":24.0,"Tu":24.0,"We":24.0,"Th":24.0,"Fr":24.0,"Sa":24.0,"Su":24.0},"opening_hours_per_week":168.0}
{"lat":49.263537,"lon":-123.1271949,"amenity":"restaurant","tags":{"opening_hours":"Mo-Fr 11:30-21:00; Sa 16:30-21:00; Su closed","cuisine":"sushi","addr:housenumber":"102-1001","addr:street":"West Broadway","addr:city":"Vancouver"},"opening_hours":{"Mo":0.0,"Tu":9.5,"We":9.5,"Th":9.5,"Fr":9.5,"Sa":4.5,"Su":0.0},"opening_hours_per_week":42.5}
{"lat":49.2635072,"lon":-123.1248994,"amenity":"restaurant","tags":{"diet:vegetarian":"yes","addr:housenumber":"955","website":"http:\/\/www.saravanaabhavan.ca","phone":"+1-604-732-7700","opening_hours":"Mo-Fr 11:30-15:00,17:00-22:00; Sa-Su 11:30-22:00","cuisine":"indian","addr:street":"West Broadway"},"opening_hours":{"Mo":10.5,"Tu":3.5,"We":3.5,"Th":3.5,"Fr":3.5,"Sa":10.5,"Su":10.5},"opening_hours_per_week":45.5}
{"lat":49.2632049,"lon":-123.1070497,"amenity":"cafe","tags":{"brand:wikidata":"Q37158","official_name":"Starbucks Coffee","brand:wikipedia":"en:Starbucks","opening_hours":"Mo-Fr 06:00-19:00; Sa,Su 07:00-19:00","cuisine":"coffee_shop","takeaway":"yes","brand":"Starbucks"},"opening_hours":{"Mo":12.0,"Tu":13.0,"We":13.0,"Th":13.0,"Fr":13.0,"Sa":12.0,"Su":12.0},"opening_hours_per_week":88.0}
{"lat":49.2632776,"lon":-123.1106188,"amenity":"fast_food","tags":{"opening_hours":"Su-Th 10:00-21:00; Fr,Sa 10:00-22:00","cuisine":"burger"},"opening_hours":{"Mo":11.0,"Tu":11.0,"We":11.0,"Th":11.0,"Fr":12.0,"Sa":12.0,"Su":12.0},"opening_hours_per_week":80.0}
{"lat":49.2370364,"lon":-123.0656459,"amenity":"restaurant","tags":{"addr:housenumber":"5257","opening_hours":"Mo-Su 17:00-03:00","cuisine":"chinese","addr:street":"Victoria Drive","addr:postcode":"V5P 3V4","addr:city":"Vancouver","capacity":"60"},"opening_hours":{"Mo":10.0,"Tu":10.0,"We":10.0,"Th":10.0,"Fr":10.0,"Sa":10.0,"Su":10.0},"opening_hours_per_week":70.0}
{"lat":49.2769275,"lon":-123.0815616,"amenity":"ice_cream","tags":{"addr:housenumber":"1033","payment:credit_cards":"no","shop":"ice_cream","phone":"1+6042513211","opening_hours":"Mo-Su 11:00-23:00","payment:cash":"yes","addr:street":"Venables Street","payment:debit_cards":"yes","addr:postcode":"V6A 3R9","url":"http:\/\/www.lacasagelato.com","addr:city":"Vancouver"},"opening_hours":{"Mo":12.0,"Tu":12.0,"We":12.0,"Th":12.0,"Fr":12.0,"Sa":12.0,"Su":12.0},"opening_hours_per_week":84.0}
{"lat":49.2906218,"lon":-123.1338516,"amenity":"fast_food","tags":{"brand:wikidata":"Q38076","addr:housenumber":"1701","internet_access":"wlan","brand:wikipedia":"en:McDonald's","opening_hours":"24\/7","cuisine":"burger","addr:street":"Robson Street","takeaway":"yes","brand":"McDonald's","addr:city":"Vancouver"},"opening_hours":{"Mo":24.0,"Tu":24.0,"We":24.0,"Th":24.0,"Fr":24.0,"Sa":24.0,"Su":24.0},"opening_hours_per_week":168.0}
{"lat":49.2862655,"lon":-123.1276613,"amenity":"restaurant","tags":{"addr:housenumber":"1230","website":"https:\/\/momo-sushi.com\/","phone":"+1-604-563-2022","opening_hours":"Su-Th 11:30-22:30; Fr,Sa 11:30-23:00","cuisine":"japanese; sushi","addr:street":"Robson Street"},"opening_hours":{"Mo":11.0,"Tu":11.0,"We":11.0,"Th":11.0,"Fr":11.5,"Sa":11.5,"Su":11.5},"opening_hours_per_week":78.5}
{"lat":49.2607875,"lon":-123.1008067,"amenity":"restaurant","tags":{"addr:housenumber":"2710","internet_access":"wlan","opening_hours":"Mo-Su 11:30-22:00","cuisine":"deli;diner;asian;thai;curry","addr:street":"Main Street","addr:postcode":"V5T 3E8"},"opening_hours":{"Mo":10.5,"Tu":10.5,"We":10.5,"Th":10.5,"Fr":10.5,"Sa":10.5,"Su":10.5},"opening_hours_per_week":73.5}
{"lat":49.2785872,"lon":-122.8510267,"amenity":"pub","tags":{"website":"http:\/\/www.theparksidebrewery.com\/tasting-room\/","microbrewery":"yes","shop":"alcohol","phone":"+1-604-492-2731","opening_hours":"Su-Mo 12:00-22:00; Tu-Sa 12:00-23:00","outdoor_seating":"yes","email":"info@theparksidebrewery.com"},"opening_hours":{"Mo":10.0,"Tu":11.0,"We":11.0,"Th":11.0,"Fr":11.0,"Sa":11.0,"Su":11.0},"opening_hours_per_week":76.0}
{"lat":49.2232465,"lon":-122.982719,"amenity":"restaurant","tags":{"contact:facebook":"https:\/\/www.facebook.com\/pottersgardenburnaby","website":"https:\/\/www.pottersgardenburnaby.com\/","cuisine":"korean;bbq","addr:postcode":"V5H 2G3","addr:city":"Burnaby","source:name:url":"http:\/\/www.openstreetmap.org\/note\/968501","addr:housenumber":"5599","contact:instagram":"https:\/\/www.instagram.com\/pottersgarden\/","phone":"+1-604-431-0208","opening_hours":"Mo-Th,Su 11:00-00:00; Fr,Sa 11:00-02:00","name:en":"Potter's Garden","addr:street":"Kingsway","email":"pgburnaby@gmail.com"},"opening_hours":{"Mo":13.0,"Tu":13.0,"We":13.0,"Th":13.0,"Fr":15.0,"Sa":15.0,"Su":15.0},"opening_hours_per_week":97.0}
{"lat":49.251496,"lon":-122.8966693,"amenity":"restaurant","tags":{"opening_hours":"Mo-Sa 06:30-21:00; Su 06:30-20:00","name:en":"Ihop"},"opening_hours":{"Mo":13.5,"Tu":14.5,"We":14.5,"Th":14.5,"Fr":14.5,"Sa":14.5,"Su":13.5},"opening_hours_per_week":99.5}
{"lat":49.2808969,"lon":-123.1073143,"amenity":"fast_food","tags":{"brand:wikidata":"Q38076","level":"0","brand:wikipedia":"en:McDonald's","cuisine":"burger","takeaway":"yes","addr:city":"Vancouver","addr:housenumber":"88","drive_through":"no","opening_hours":"Su-Th 06:00-23:00; Fr-Sa 00:00-24:00","name:en":"McDonald's","addr:street":"West Pender Street","brand":"McDonald's"},"opening_hours":{"Mo":17.0,"Tu":17.0,"We":17.0,"Th":17.0,"Fr":24.0,"Sa":24.0,"Su":24.0},"opening_hours_per_week":140.0}
{"lat":49.2808098,"lon":-123.1070156,"amenity":"cafe","tags":{"wheelchair":"yes","website":"http:\/\/www.cavemancafe.ca","diet:paleo":"yes","diet:gluten_free":"yes","level":"0","diet:dairy_free":"yes","diet:vegan":"yes","takeaway":"yes","addr:unit":"1005","addr:city":"Vancouver","diet:vegetarian":"yes","addr:housenumber":"88","diet:halal":"only","phone":"+1-604-331-0668","opening_hours":"Mo-Fr 11:00-22:00; Sa 12:00-22:00; Su 12:00-18:00","outdoor_seating":"no","addr:street":"Pender Street","payment:debit_cards":"yes","email":"info@cavemancafe.ca"},"opening_hours":{"Mo":6.0,"Tu":11.0,"We":11.0,"Th":11.0,"Fr":11.0,"Sa":10.0,"Su":6.0},"opening_hours_per_week":66.0}
{"lat":49.3063936,"lon":-123.0115775,"amenity":"bar","tags":{"addr:housenumber":"2270","website":"http:\/\/deepcovecraft.com\/index_wp.php\/lounge\/","shop":"alcohol","phone":"+1-604-770-1136","opening_hours":"Mo-Th 12:00-23:00; Fr-Sa 12:00-00:00; Su 12:00-22:00","outdoor_seating":"yes","addr:street":"Dollarton Highway","addr:postcode":"V7H 1A8","addr:unit":"170","email":"info@deepcovecraft.com","addr:city":"North Vancouver"},"opening_hours":{"Mo":10.0,"Tu":11.0,"We":11.0,"Th":11.0,"Fr":12.0,"Sa":12.0,"Su":10.0},"opening_hours_per_week":77.0}
{"lat":49.2710854,"lon":-123.1553081,"amenity":"restaurant","tags":{"addr:housenumber":"1631","internet_access":"no","smoking":"no","opening_hours":"07:00-14:30","cuisine":"mixed","addr:street":"Yew St","addr:postcode":"V6K 3E6","addr:city":"Vancouver"},"opening_hours":{"Mo":7.5,"Tu":7.5,"We":7.5,"Th":7.5,"Fr":7.5,"Sa":7.5,"Su":7.5},"opening_hours_per_week":52.5}
{"lat":49.2777606,"lon":-123.0760415,"amenity":"bar","tags":{"website":"http:\/\/offtherailbrewing.com\/","shop":"alcohol","phone":"+1-604-563-5767","opening_hours":"Su-Th 12:00-20:00; Fr-Sa 12:00-22:00","brewery":"yes","email":"trigger@offtherailbrewing.com"},"opening_hours":{"Mo":8.0,"Tu":8.0,"We":8.0,"Th":8.0,"Fr":10.0,"Sa":10.0,"Su":10.0},"opening_hours_per_week":62.0}
{"lat":49.2774745,"lon":-123.0745168,"amenity":"bar","tags":{"opening_hours":"Mo-Su 12:00-23:00","website":"http:\/\/bomberbrewing.com","shop":"alcohol","phone":"+1-604-428-7457"},"opening_hours":{"Mo":11.0,"Tu":11.0,"We":11.0,"Th":11.0,"Fr":11.0,"Sa":11.0,"Su":11.0},"opening_hours_per_week":77.0}
{"lat":49.1293757,"lon":-123.0952983,"amenity":"bar","tags":{"addr:housenumber":"11220","website":"http:\/\/fuggleswarlock.com","shop":"alcohol","phone":"+1-604-285-7745","wlan":"free","opening_hours":"Su-We 12:00-19:00; Th-Sa 11:00-00:00","addr:street":"Horseshoe Way","addr:postcode":"V7A 4V5","addr:unit":"103","email":"beer@fuggleswarlock.com","addr:city":"Richmond"},"opening_hours":{"Mo":7.0,"Tu":7.0,"We":7.0,"Th":13.0,"Fr":13.0,"Sa":13.0,"Su":13.0},"opening_hours_per_week":73.0}
{"lat":49.2830915,"lon":-123.1356339,"amenity":"restaurant","tags":{"addr:housenumber":"1326","website":"http:\/\/kinaraindiancuisine.com","phone":"+1-604-633-8313","opening_hours":"Mo-Fr 11:00-22:00; Sa, Su 12:00-22:00","cuisine":"indian","addr:street":"Davie Street","addr:postcode":"V6E 1N5","addr:city":"Vancouver"},"opening_hours":{"Mo":10.0,"Tu":11.0,"We":11.0,"Th":11.0,"Fr":11.0,"Sa":10.0,"Su":10.0},"opening_hours_per_week":74.0}
{"lat":49.2865567,"lon":-123.1410036,"amenity":"cafe","tags":{"brand:wikidata":"Q175106","addr:housenumber":"1752","internet_access":"wlan","brand:wikipedia":"en:Tim Hortons","opening_hours":"Mo-Su 05:00-23:00","cuisine":"coffee_shop","addr:street":"Davie Street","takeaway":"yes","brand":"Tim Hortons"},"opening_hours":{"Mo":18.0,"Tu":18.0,"We":18.0,"Th":18.0,"Fr":18.0,"Sa":18.0,"Su":18.0},"opening_hours_per_week":126.0}
{"lat":49.2849397,"lon":-123.0649633,"amenity":"pub","tags":{"opening_hours":"Mo-Th,Su 11:00-00:00; Fr,Sa 11:00-01:00","addr:housenumber":"120-1901","website":"http:\/\/www.princetonpub.com","addr:street":"Dundas Street","phone":"+1-604-253-6645"},"opening_hours":{"Mo":13.0,"Tu":13.0,"We":13.0,"Th":13.0,"Fr":14.0,"Sa":14.0,"Su":14.0},"opening_hours_per_week":94.0}
{"lat":49.2821283,"lon":-123.1164589,"amenity":"fast_food","tags":{"opening_hours":"Mo-Su 10:00-19:30","addr:housenumber":"678","addr:street":"Seymour Street"},"opening_hours":{"Mo":9.5,"Tu":9.5,"We":9.5,"Th":9.5,"Fr":9.5,"Sa":9.5,"Su":9.5},"opening_hours_per_week":66.5}
{"lat":49.282708,"lon":-123.1147514,"amenity":"fast_food","tags":{"opening_hours":"Mo-Fr 11:00-21:00; Sa 12:00-21:00","addr:housenumber":"519","addr:street":"Dunsmuir Street","addr:city":"Vancouver"},"opening_hours":{"Mo":10.0,"Tu":10.0,"We":10.0,"Th":10.0,"Fr":10.0,"Sa":9.0,"Su":9.0},"opening_hours_per_week":68.0}
{"lat":49.2841314,"lon":-123.1083829,"amenity":"pub","tags":{"diet:vegetarian":"yes","addr:housenumber":"162","website":"http:\/\/www.pourhousevancouver.com","internet_access":"wlan","phone":"+1-604-568-7022","opening_hours":"Mo-Th,Su 17:00-00:00; Fr,Sa 17:00-01:00","addr:street":"Water Street","addr:postcode":"V6B 1B2"},"opening_hours":{"Mo":7.0,"Tu":7.0,"We":7.0,"Th":7.0,"Fr":8.0,"Sa":8.0,"Su":8.0},"opening_hours_per_week":52.0}
{"lat":49.1128069,"lon":-122.6724406,"amenity":"cafe","tags":{"brand:wikidata":"Q37158","official_name":"Starbucks Coffee","website":"https:\/\/www.starbucks.ca\/","internet_access":"wlan","brand:wikipedia":"en:Starbucks","cuisine":"coffee_shop","takeaway":"yes","addr:housenumber":"19898","phone":"+1-604-217-7393","opening_hours":"Mo-Fr 05:00-21:00; Su 06:30-21:00; Sa 06:00-21:00","name:en":"Starbucks","addr:street":"Langley Bypass","brand":"Starbucks"},"opening_hours":{"Mo":14.5,"Tu":16.0,"We":16.0,"Th":16.0,"Fr":16.0,"Sa":15.0,"Su":15.0},"opening_hours_per_week":108.5}
{"lat":49.2753903,"lon":-123.1216407,"amenity":"bar","tags":{"opening_hours":"Tu-Th 12:00-17:00; Fr-Sa 12:30-20:00","addr:housenumber":"1128","name:en":"Yaletown Distilling Company","addr:street":"Hamilton Street","addr:city":"Vancouver"},"opening_hours":{"Mo":0.0,"Tu":5.0,"We":5.0,"Th":5.0,"Fr":7.5,"Sa":7.5,"Su":7.5},"opening_hours_per_week":37.5}
{"lat":49.2751119,"lon":-123.1214624,"amenity":"fast_food","tags":{"website":"http:\/\/madebymister.com","payment:credit_cards":"yes","payment:cash":"yes","description":"Artisan Ice Cream","cuisine":"ice_cream","addr:postcode":"V6B 5P2","addr:city":"Vancouver","addr:housenumber":"1141","phone":"+1-778-379-2833","drive_through":"no","opening_hours":"Su-Th 12:00-22:00; Fr-Sa 12:00-21:00","name:en":"Mister Artisan Ice Cream","addr:street":"Mainland Street","payment:debit_cards":"yes"},"opening_hours":{"Mo":10.0,"Tu":10.0,"We":10.0,"Th":10.0,"Fr":9.0,"Sa":9.0,"Su":9.0},"opening_hours_per_week":67.0}
{"lat":49.1537523,"lon":-123.1584726,"amenity":"fast_food","tags":{"brand:wikidata":"Q38076","addr:housenumber":"8140","website":"http:\/\/www.mcdonalds.ca\/","internet_access":"wlan","phone":"+1-604-370-4750","brand:wikipedia":"en:McDonald's","opening_hours":"Su-Sa 05:00-24:00","cuisine":"burger","addr:street":"No. 2 Road","takeaway":"yes","brand":"McDonald's"},"opening_hours":{"Mo":0.0,"Tu":0.0,"We":0.0,"Th":0.0,"Fr":0.0,"Sa":0.0,"Su":19.0},"opening_hours_per_week":19.0}
{"lat":49.263303,"lon":-123.1007167,"amenity":"fast_food","tags":{"opening_hours":"Mo-Sa 16:35-22:35; Su 16:30-21:00","cuisine":"pizza","addr:housenumber":"2444","outdoor_seating":"no","addr:street":"Main Street"},"opening_hours":{"Mo":4.5,"Tu":6.0,"We":6.0,"Th":6.0,"Fr":6.0,"Sa":6.0,"Su":4.5},"opening_hours_per_week":39.0}
{"lat":49.2631099,"lon":-123.1018738,"amenity":"restaurant","tags":{"addr:housenumber":"147","website":"http:\/\/www.chutneyvilla.com\/","phone":"+1-604-872-2228","opening_hours":"Mo-Fr 11:30-22:00; Sa 11:00-22:00; Su 11:00-21:00","cuisine":"indian","addr:street":"East Broadway","addr:postcode":"V5T 1W1"},"opening_hours":{"Mo":10.0,"Tu":10.5,"We":10.5,"Th":10.5,"Fr":10.5,"Sa":11.0,"Su":10.0},"opening_hours_per_week":73.0}
{"lat":49.321953,"lon":-123.0728213,"amenity":"restaurant","tags":{"delivery":"no","addr:housenumber":"115","phone":"+1-604-770-4484","opening_hours":"11:30-22:30","cuisine":"pizza","addr:street":"West 15th Street","takeaway":"yes","addr:city":"North Vancouver"},"opening_hours":{"Mo":11.0,"Tu":11.0,"We":11.0,"Th":11.0,"Fr":11.0,"Sa":11.0,"Su":11.0},"opening_hours_per_week":77.0}
{"lat":49.2481556,"lon":-123.1008994,"amenity":"ice_cream","tags":{"opening_hours":"Mo-Su 12:00-22:00","addr:housenumber":"4150","addr:street":"Main Street","addr:city":"Vancouver"},"opening_hours":{"Mo":10.0,"Tu":10.0,"We":10.0,"Th":10.0,"Fr":10.0,"Sa":10.0,"Su":10.0},"opening_hours_per_week":70.0}
{"lat":49.1047469,"lon":-122.7990471,"amenity":"cafe","tags":{"opening_hours":"24\/7","cuisine":"donut","addr:housenumber":"15255","addr:street":"Highway 10","internet_access":"wlan"},"opening_hours":{"Mo":24.0,"Tu":24.0,"We":24.0,"Th":24.0,"Fr":24.0,"Sa":24.0,"Su":24.0},"opening_hours_per_week":168.0}
{"lat":49.1691756,"lon":-122.9586576,"amenity":"fast_food","tags":{"opening_hours":"Mo-Fr 10:00-20:00; Sa-Su 10:00-22:00","cuisine":"burger","addr:housenumber":"1359","addr:street":"Cliveden Avenue","drive_through":"yes"},"opening_hours":{"Mo":12.0,"Tu":10.0,"We":10.0,"Th":10.0,"Fr":10.0,"Sa":12.0,"Su":12.0},"opening_hours_per_week":76.0}
{"lat":49.0448257,"lon":-122.778652,"amenity":"cafe","tags":{"brand:wikidata":"Q37158","official_name":"Starbucks Coffee","addr:housenumber":"16010","brand:wikipedia":"en:Starbucks","opening_hours":"Sa,Su 06:00-22:00; Mo-Fr 05:00-22:00","cuisine":"coffee_shop","addr:street":"24 Avenue","takeaway":"yes","brand":"Starbucks","addr:unit":"105"},"opening_hours":{"Mo":17.0,"Tu":17.0,"We":17.0,"Th":17.0,"Fr":17.0,"Sa":17.0,"Su":16.0},"opening_hours_per_week":118.0}
{"lat":49.044471,"lon":-122.7772142,"amenity":"fast_food","tags":{"opening_hours":"24\/7","cuisine":"burger","addr:unit":"170"},"opening_hours":{"Mo":24.0,"Tu":24.0,"We":24.0,"Th":24.0,"Fr":24.0,"Sa":24.0,"Su":24.0},"opening_hours_per_week":168.0}
{"lat":49.2027477,"lon":-122.8795076,"amenity":"fast_food","tags":{"brand:wikidata":"Q38076","addr:housenumber":"11011","website":"http:\/\/www.mcdonalds.ca\/","internet_access":"wlan","phone":"+1-604-580-4040","brand:wikipedia":"en:McDonald's","opening_hours":"24\/7","cuisine":"burger","addr:street":"Scott Road","takeaway":"yes","brand":"McDonald's"},"opening_hours":{"Mo":24.0,"Tu":24.0,"We":24.0,"Th":24.0,"Fr":24.0,"Sa":24.0,"Su":24.0},"opening_hours_per_week":168.0}
{"lat":49.2638283,"lon":-123.1413786,"amenity":"restaurant","tags":{"opening_hours":"Su-Th 11:30-24:00, Fr,Sa 11:30-01:00"},"opening_hours":{"Mo":12.5,"Tu":12.5,"We":12.5,"Th":12.5,"Fr":0.0,"Sa":13.5,"Su":13.5},"opening_hours_per_week":77.0}
{"lat":49.2634479,"lon":-123.1380669,"amenity":"fast_food","tags":{"brand:wikidata":"Q38076","addr:housenumber":"1482","website":"http:\/\/www.mcdonalds.ca\/","internet_access":"wlan","brand:wikipedia":"en:McDonald's","opening_hours":"Su-Th 06:00-24:00; Fr-Sa 06:00-01:00","cuisine":"burger","addr:street":"West Broadway","takeaway":"yes","brand":"McDonald's"},"opening_hours":{"Mo":18.0,"Tu":18.0,"We":18.0,"Th":18.0,"Fr":19.0,"Sa":19.0,"Su":19.0},"opening_hours_per_week":129.0}
{"lat":49.1616399,"lon":-123.1358929,"amenity":"fast_food","tags":{"brand:wikidata":"Q38076","website":"http:\/\/www.mcdonalds.ca\/","internet_access":"wlan","brand:wikipedia":"en:McDonald's","cuisine":"burger","takeaway":"yes","addr:city":"Richmond","addr:housenumber":"7120","phone":"+1-604-718-1045","drive_through":"yes","smoking":"no","opening_hours":"24\/7","outdoor_seating":"yes","addr:street":"No. 3 Road","brand":"McDonald's"},"opening_hours":{"Mo":24.0,"Tu":24.0,"We":24.0,"Th":24.0,"Fr":24.0,"Sa":24.0,"Su":24.0},"opening_hours_per_week":168.0}
{"lat":49.1708265,"lon":-123.136968,"amenity":"restaurant","tags":{"note":"Open 7 days a week (including Christmas Day)","addr:housenumber":"200-5951","website":"http:\/\/www.empirerestaurant.ca\/","smoking":"no","opening_hours":"09:00-15:00; 17:30-22:30","cuisine":"chinese","addr:street":"Number 3 Road","addr:postcode":"V6X 2E3","addr:city":"Richmond"},"opening_hours":{"Mo":6.0,"Tu":6.0,"We":6.0,"Th":6.0,"Fr":6.0,"Sa":6.0,"Su":6.0},"opening_hours_per_week":42.0}
{"lat":49.2347512,"lon":-123.1582643,"amenity":"cafe","tags":{"brand:wikidata":"Q175106","brand:wikipedia":"en:Tim Hortons","opening_hours":"24\/7","cuisine":"coffee_shop","takeaway":"yes","brand":"Tim Hortons"},"opening_hours":{"Mo":24.0,"Tu":24.0,"We":24.0,"Th":24.0,"Fr":24.0,"Sa":24.0,"Su":24.0},"opening_hours_per_week":168.0}
{"lat":49.2729377,"lon":-123.0997917,"amenity":"cafe","tags":{"brand:wikidata":"Q37158","official_name":"Starbucks Coffee","website":"https:\/\/www.starbucks.com\/","internet_access":"wlan","brand:wikipedia":"en:Starbucks","internet_access:fee":"no","cuisine":"coffee_shop","takeaway":"yes","addr:city":"Vancouver","addr:housenumber":"201","opening_hours":"Mo-Sa 06:00-20:00; Su 06:00-19:00","brand":"Starbucks"},"opening_hours":{"Mo":13.0,"Tu":14.0,"We":14.0,"Th":14.0,"Fr":14.0,"Sa":14.0,"Su":13.0},"opening_hours_per_week":96.0}
{"lat":49.2739585,"lon":-123.0980509,"amenity":"fast_food","tags":{"brand:wikidata":"Q2818848","website":"http:\/\/www.aw.ca","internet_access":"wlan","brand:wikipedia":"en:A&W (Canada)","opening_hours":"Mo-Fr 06:00-20:00; Sa 07:30-20:00; Su 08:00-20:00","cuisine":"burger","takeaway":"yes","brand":"A&W"},"opening_hours":{"Mo":12.0,"Tu":14.0,"We":14.0,"Th":14.0,"Fr":14.0,"Sa":12.5,"Su":12.0},"opening_hours_per_week":92.5}
{"lat":49.2665769,"lon":-123.2501701,"amenity":"pub","tags":{"toilets:wheelchair":"yes","wheelchair":"yes","addr:housenumber":"6133","website":"https:\/\/www.ams.ubc.ca\/foodanddrink\/the-pit\/","phone":"+1-604-822-6511","smoking":"no","opening_hours":"Mo,Tu,Th 11:30-23:00; We 11:30-02:00; Fr 11:30-01:00","addr:street":"University Boulevard","layer":"-1"},"opening_hours":{"Mo":11.5,"Tu":11.5,"We":14.5,"Th":14.5,"Fr":13.5,"Sa":13.5,"Su":0.0},"opening_hours_per_week":79.0}
{"lat":49.2838013,"lon":-123.1158299,"amenity":"fast_food","tags":{"addr:housenumber":"562","website":"http:\/\/www.urbansushi.com","phone":"+1-604-806-6218","opening_hours":"Mo-Fr 11:00-20:00; Sa 11:30-19:30","cuisine":"sushi","addr:street":"Granville Street","addr:postcode":"V6C 1W6","email":"info@urbansushi.com"},"opening_hours":{"Mo":9.0,"Tu":9.0,"We":9.0,"Th":9.0,"Fr":9.0,"Sa":8.0,"Su":8.0},"opening_hours_per_week":61.0}
{"lat":49.0323555,"lon":-122.8669141,"amenity":"cafe","tags":{"opening_hours":"Mo-Sa 05:30-20:30; Su 06:00-20:30","cuisine":"coffee_shop"},"opening_hours":{"Mo":14.5,"Tu":15.0,"We":15.0,"Th":15.0,"Fr":15.0,"Sa":15.0,"Su":14.5},"opening_hours_per_week":104.0}
{"lat":49.0334416,"lon":-122.8008794,"amenity":"cafe","tags":{"opening_hours":"Mo-Su 05:30-21:30","cuisine":"coffee_shop","addr:housenumber":"1730","addr:street":"152 Street"},"opening_hours":{"Mo":16.0,"Tu":16.0,"We":16.0,"Th":16.0,"Fr":16.0,"Sa":16.0,"Su":16.0},"opening_hours_per_week":112.0}
{"lat":49.0246535,"lon":-122.8013247,"amenity":"cafe","tags":{"opening_hours":"Mo-Fr 07:00-17:00; Sa 07:30-17:00; Su 08:00-17:00","cuisine":"coffee","addr:housenumber":"1237","addr:street":"Johnston Road","addr:city":"White Rock"},"opening_hours":{"Mo":9.0,"Tu":10.0,"We":10.0,"Th":10.0,"Fr":10.0,"Sa":9.5,"Su":9.0},"opening_hours_per_week":67.5}
{"lat":49.1196856,"lon":-122.6912218,"amenity":"cafe","tags":{"brand:wikidata":"Q175106","addr:housenumber":"19171","internet_access":"wlan","phone":"+1-604-574-1812","brand:wikipedia":"en:Tim Hortons","opening_hours":"24\/7","cuisine":"coffee_shop","addr:street":"Fraser Highway","takeaway":"yes","brand":"Tim Hortons"},"opening_hours":{"Mo":24.0,"Tu":24.0,"We":24.0,"Th":24.0,"Fr":24.0,"Sa":24.0,"Su":24.0},"opening_hours_per_week":168.0}
{"lat":49.1247605,"lon":-122.7048284,"amenity":"cafe","tags":{"brand:wikidata":"Q175106","addr:housenumber":"18682","internet_access":"wlan","phone":"+1-778-571-0394","brand:wikipedia":"en:Tim Hortons","opening_hours":"24\/7","cuisine":"coffee_shop","addr:street":"Fraser Highway","takeaway":"yes","brand":"Tim Hortons"},"opening_hours":{"Mo":24.0,"Tu":24.0,"We":24.0,"Th":24.0,"Fr":24.0,"Sa":24.0,"Su":24.0},"opening_hours_per_week":168.0}
{"lat":49.1636149,"lon":-122.8780219,"amenity":"cafe","tags":{"brand:wikidata":"Q175106","addr:housenumber":"12467","internet_access":"wlan","brand:wikipedia":"en:Tim Hortons","smoking":"no","opening_hours":"24\/7","cuisine":"coffee_shop","addr:street":"88 Avenue","takeaway":"yes","brand":"Tim Hortons"},"opening_hours":{"Mo":24.0,"Tu":24.0,"We":24.0,"Th":24.0,"Fr":24.0,"Sa":24.0,"Su":24.0},"opening_hours_per_week":168.0}
{"lat":49.1502485,"lon":-122.8899397,"amenity":"cafe","tags":{"brand:wikidata":"Q175106","addr:housenumber":"8080","internet_access":"wlan","brand:wikipedia":"en:Tim Hortons","opening_hours":"24\/7","cuisine":"coffee_shop","addr:street":"Scott Road","takeaway":"yes","brand":"Tim Hortons"},"opening_hours":{"Mo":24.0,"Tu":24.0,"We":24.0,"Th":24.0,"Fr":24.0,"Sa":24.0,"Su":24.0},"opening_hours_per_week":168.0}
{"lat":49.2730334,"lon":-123.1003915,"amenity":"fast_food","tags":{"opening_hours":"24\/7","name:en":"A&W"},"opening_hours":{"Mo":24.0,"Tu":24.0,"We":24.0,"Th":24.0,"Fr":24.0,"Sa":24.0,"Su":24.0},"opening_hours_per_week":168.0}
{"lat":49.2305371,"lon":-123.007442,"amenity":"restaurant","tags":{"brand:wikidata":"Q3472954","addr:housenumber":"4334","website":"https:\/\/www.nandos.ca\/eat\/restaurants\/kingsway","phone":"+1-604-434-6220","brand:wikipedia":"en:Nando's","opening_hours":"Mo-Th 11:00-22:00; Fr-Sa 11:00-22:30; Su 11:00-22:00","cuisine":"chicken;portuguese","name:en":"Nando's","addr:street":"Kingsway","brand":"Nando's"},"opening_hours":{"Mo":11.0,"Tu":11.0,"We":11.0,"Th":11.0,"Fr":11.5,"Sa":11.5,"Su":11.0},"opening_hours_per_week":78.0}
{"lat":49.035414,"lon":-122.2663773,"amenity":"restaurant","tags":{"opening_hours":"Su-Th 11:00-00:00; Fr-Sa 11:00-01:00","website":"https:\/\/www.cactusclubcafe.com\/location\/abbotsford","outdoor_seating":"yes","phone":"+1-604-852-2582","addr:unit":"B"},"opening_hours":{"Mo":13.0,"Tu":13.0,"We":13.0,"Th":13.0,"Fr":14.0,"Sa":14.0,"Su":14.0},"opening_hours_per_week":94.0}
{"lat":49.0519086,"lon":-122.3094082,"amenity":"fast_food","tags":{"opening_hours":"24\/7","cuisine":"burger","website":"http:\/\/www.mcdonalds.ca","drive_through":"yes"},"opening_hours":{"Mo":24.0,"Tu":24.0,"We":24.0,"Th":24.0,"Fr":24.0,"Sa":24.0,"Su":24.0},"opening_hours_per_week":168.0}
{"lat":49.269267,"lon":-123.138821,"amenity":"restaurant","tags":{"addr:housenumber":"1833","website":"https:\/\/afghanhorsemen.com\/","phone":"+1-604-873-5923","opening_hours":"Su-Th 17:00-22:00; Fr-Sa 17:00-23:00","cuisine":"arab","name:en":"Afghan Horsemen Restaurant","addr:street":"Anderson Street"},"opening_hours":{"Mo":5.0,"Tu":5.0,"We":5.0,"Th":5.0,"Fr":6.0,"Sa":6.0,"Su":6.0},"opening_hours_per_week":38.0}
{"lat":49.0390323,"lon":-122.3107782,"amenity":"cafe","tags":{"opening_hours":"08:30-15:00","website":"https:\/\/mennoplace.ca\/fireside-cafe","phone":"+1-604-859-7631x283","url":"http:\/\/firesidecafe.ca"},"opening_hours":{"Mo":6.5,"Tu":6.5,"We":6.5,"Th":6.5,"Fr":6.5,"Sa":6.5,"Su":6.5},"opening_hours_per_week":45.5}
{"lat":49.2764454,"lon":-123.1195159,"amenity":"restaurant","tags":{"payment:credit_cards":"yes","cuisine":"mexican","addr:postcode":"V6B 5P9","addr:city":"Vancouver","addr:housenumber":"1025","phone":"+1-778-379-8226","drive_through":"no","opening_hours":"Su-Th 11:00-22:00, Fr,Sa 11:00-24:00","name:en":"Tacofino","outdoor_seating":"yes","addr:street":"Mainland Street","payment:debit_cards":"yes","email":"yaletown@tacofino.com"},"opening_hours":{"Mo":11.0,"Tu":11.0,"We":11.0,"Th":11.0,"Fr":0.0,"Sa":13.0,"Su":13.0},"opening_hours_per_week":70.0}
{"lat":49.2763998,"lon":-123.1196013,"amenity":"restaurant","tags":{"addr:housenumber":"1035","opening_hours":"Mo-We 11:30-24:00, Th 11:30-01:00, Fr 11:30-02:00, Sa 10:30-02:00, Su 10:30-24:00","name:en":"West Oak","addr:street":"Mainland Street","happy_hours":"15:00-18:00","addr:city":"Vancouver"},"opening_hours":{"Mo":13.5,"Tu":12.5,"We":12.5,"Th":13.5,"Fr":14.5,"Sa":15.5,"Su":13.5},"opening_hours_per_week":95.5}
{"lat":49.2759204,"lon":-123.1203048,"amenity":"restaurant","tags":{"opening_hours":"Mo-Sa 11:00-24:00, Su 11:00-23:00","addr:housenumber":"1079","name:en":"Wild Tale","addr:street":"Mainland Street","addr:city":"Vancouver"},"opening_hours":{"Mo":12.0,"Tu":13.0,"We":13.0,"Th":13.0,"Fr":13.0,"Sa":13.0,"Su":12.0},"opening_hours_per_week":89.0}
{"lat":49.2762885,"lon":-123.1197566,"amenity":"restaurant","tags":{"opening_hours":"Mo-Fr 11:30-22:00+; Sa,Su 14:00-22:00+","name:en":"The Greek by Anatoli","addr:street":"Mainland Street","addr:city":"Vancouver"},"opening_hours":{"Mo":8.0,"Tu":10.5,"We":10.5,"Th":10.5,"Fr":10.5,"Sa":8.0,"Su":8.0},"opening_hours_per_week":66.0}
{"lat":49.2764887,"lon":-123.1189668,"amenity":"fast_food","tags":{"brand:wikidata":"Q244457","addr:housenumber":"1000","brand:wikipedia":"en:Subway (restaurant)","opening_hours":"24\/7","cuisine":"sandwich","name:en":"Subway","addr:street":"Mainland Street","takeaway":"yes","brand":"Subway"},"opening_hours":{"Mo":24.0,"Tu":24.0,"We":24.0,"Th":24.0,"Fr":24.0,"Sa":24.0,"Su":24.0},"opening_hours_per_week":168.0}
{"lat":49.2590457,"lon":-123.1389288,"amenity":"restaurant","tags":{"addr:housenumber":"2993","phone":"+1-604-739-8868","opening_hours":"Mo-Su 11:00-23:00","cuisine":"japanese;korean;asian","name:en":"KYO Korean BBQ & Sushi house","addr:street":"Granville Street","addr:postcode":"V6H 3J6"},"opening_hours":{"Mo":12.0,"Tu":12.0,"We":12.0,"Th":12.0,"Fr":12.0,"Sa":12.0,"Su":12.0},"opening_hours_per_week":84.0}
{"lat":49.1872412,"lon":-123.1316835,"amenity":"restaurant","tags":{"addr:housenumber":"8338","website":"http:\/\/deergarden.ca\/","phone":"+1-604-278-3779","smoking":"no","opening_hours":"Mo-Su 11:00-23:00","cuisine":"chinese","addr:street":"Capstan Way","addr:unit":"1213","addr:city":"Richmond"},"opening_hours":{"Mo":12.0,"Tu":12.0,"We":12.0,"Th":12.0,"Fr":12.0,"Sa":12.0,"Su":12.0},"opening_hours_per_week":84.0}
{"lat":49.1877519,"lon":-123.1304362,"amenity":"restaurant","tags":{"opening_hours":"Mo-Su 12:00-00:00","addr:housenumber":"8328","addr:street":"Capstan Way","addr:unit":"1136","addr:city":"Richmond"},"opening_hours":{"Mo":12.0,"Tu":12.0,"We":12.0,"Th":12.0,"Fr":12.0,"Sa":12.0,"Su":12.0},"opening_hours_per_week":84.0}
{"lat":49.3277823,"lon":-123.139609,"amenity":"fast_food","tags":{"brand:wikidata":"Q465751","official_name":"Chipotle Mexican Grill","brand:wikipedia":"en:Chipotle Mexican Grill","drive_through":"no","opening_hours":"10:45-10:00","cuisine":"mexican","outdoor_seating":"yes","takeaway":"yes","brand":"Chipotle"},"opening_hours":{"Mo":23.25,"Tu":23.25,"We":23.25,"Th":23.25,"Fr":23.25,"Sa":23.25,"Su":23.25},"opening_hours_per_week":162.75}
{"lat":49.0530329,"lon":-122.3170562,"amenity":"restaurant","tags":{"opening_hours":"24\/7","cuisine":"american","website":"https:\/\/m.facebook.com\/Dennys-103614253112369","phone":"+1-604-853-3669","level":"0"},"opening_hours":{"Mo":24.0,"Tu":24.0,"We":24.0,"Th":24.0,"Fr":24.0,"Sa":24.0,"Su":24.0},"opening_hours_per_week":168.0}
{"lat":49.2023823,"lon":-122.9089811,"amenity":"bar","tags":{"addr:housenumber":"652","website":"http:\/\/www.paramountgirls.com\/","phone":"+1-604-526-8675","smoking":"no","opening_hours":"Tu-Th 18:00-02:00; Fr-Sa 18:00-03:00; Su 20:00-02:00","addr:street":"Columbia Street"},"opening_hours":{"Mo":6.0,"Tu":8.0,"We":8.0,"Th":8.0,"Fr":9.0,"Sa":9.0,"Su":6.0},"opening_hours_per_week":54.0}
{"lat":49.1784638,"lon":-123.1302833,"amenity":"restaurant","tags":{"addr:housenumber":"8391","website":"https:\/\/the-fish-man.business.site\/","phone":"+1-604-284-5393","opening_hours":"17:00-00:00","addr:street":"Alexandra Road","addr:unit":"1180","addr:city":"Richmond"},"opening_hours":{"Mo":7.0,"Tu":7.0,"We":7.0,"Th":7.0,"Fr":7.0,"Sa":7.0,"Su":7.0},"opening_hours_per_week":49.0}
{"lat":49.2861774,"lon":-123.1269715,"amenity":"cafe","tags":{"opening_hours":"Mo-Th 06:30-23:00; Fr 06:30-24:00; Sa 07:00-24:00; Su 07:00-23:00"},"opening_hours":{"Mo":16.0,"Tu":16.5,"We":16.5,"Th":16.5,"Fr":17.5,"Sa":17.0,"Su":16.0},"opening_hours_per_week":116.0}
{"lat":49.2638449,"lon":-123.1000453,"amenity":"cafe","tags":{"opening_hours":"Mo-Fr 07:00-18:30; Sa 08:00-17:30; Su 09:00-16:30","addr:housenumber":"39","addr:street":"Kingsway","name_alt":"Pleasant Cafe"},"opening_hours":{"Mo":7.5,"Tu":11.5,"We":11.5,"Th":11.5,"Fr":11.5,"Sa":9.5,"Su":7.5},"opening_hours_per_week":70.5}
{"lat":49.2821626,"lon":-123.1045058,"amenity":"cafe","tags":{"addr:housenumber":"315","website":"http:\/\/www.nelsontheseagull.com","phone":"+1-604-681-5776","opening_hours":"Mo-Fr 08:00-17:00; Sa,Su 09:00-17:00","addr:street":"Carrall Street","addr:postcode":"V6A 0A7"},"opening_hours":{"Mo":8.0,"Tu":9.0,"We":9.0,"Th":9.0,"Fr":9.0,"Sa":8.0,"Su":8.0},"opening_hours_per_week":60.0}
{"lat":49.2870382,"lon":-123.1181012,"amenity":"cafe","tags":{"addr:housenumber":"401","website":"https:\/\/blenz.com\/","phone":"+1-604-684-7000","opening_hours":"Mo-Fr 06:00-17:00","addr:street":"Burrard Street","addr:postcode":"V6C 3R2"},"opening_hours":{"Mo":11.0,"Tu":11.0,"We":11.0,"Th":11.0,"Fr":11.0,"Sa":11.0,"Su":0.0},"opening_hours_per_week":66.0}
{"lat":49.1810752,"lon":-123.1354747,"amenity":"fast_food","tags":{"opening_hours":"Mo-Sa 11:00-19:30","name:en":"James Snacks","phone":"+1-604-716-1328","name:zh_pinyin":"\u4f54\u58eb\u53fb\u7172\u4ed4\u98ef"},"opening_hours":{"Mo":8.5,"Tu":8.5,"We":8.5,"Th":8.5,"Fr":8.5,"Sa":8.5,"Su":8.5},"opening_hours_per_week":59.5}
{"lat":49.2898216,"lon":-123.1332015,"amenity":"fast_food","tags":{"opening_hours":"Su-Th 11:30-01:00; Fr-Sa 11:30-02:00","addr:housenumber":"1638","name:en":"Book Kyung Ban Jeoun & BK Karaoke","addr:street":"Robson Street"},"opening_hours":{"Mo":13.5,"Tu":13.5,"We":13.5,"Th":13.5,"Fr":14.5,"Sa":14.5,"Su":14.5},"opening_hours_per_week":97.5}
{"lat":49.2324291,"lon":-123.0903793,"amenity":"restaurant","tags":{"wheelchair":"yes","addr:housenumber":"5740","website":"http:\/\/newbhaiasweet.com\/","phone":"+1-604-323-2100","smoking":"no","opening_hours":"Su-Sa 09:30-21:00","cuisine":"indian","outdoor_seating":"no","addr:street":"Fraser Street","takeaway":"yes"},"opening_hours":{"Mo":0.0,"Tu":0.0,"We":0.0,"Th":0.0,"Fr":0.0,"Sa":0.0,"Su":11.5},"opening_hours_per_week":11.5}
{"lat":49.1821912,"lon":-123.1354485,"amenity":"restaurant","tags":{"opening_hours":"We-Su 11:00-15:00,18:00-22:00","name:en":"Sanpoutei Ramen","phone":"+1-604-285-1226","name:zh_pinyin":"\u4e09\u5bf6\u4ead"},"opening_hours":{"Mo":4.0,"Tu":4.0,"We":4.0,"Th":4.0,"Fr":4.0,"Sa":4.0,"Su":4.0},"opening_hours_per_week":28.0}
{"lat":49.1784657,"lon":-123.1307836,"amenity":"cafe","tags":{"opening_hours":"Mo-Su 12:30-00:30","name:en":"Leisure Tea & Coffee","phone":"+1-604-821-9998","name:zh_pinyin":"\u5137\u820d\u5496\u5561"},"opening_hours":{"Mo":12.0,"Tu":12.0,"We":12.0,"Th":12.0,"Fr":12.0,"Sa":12.0,"Su":12.0},"opening_hours_per_week":84.0}
{"lat":49.162471,"lon":-122.6580285,"amenity":"restaurant","tags":{"addr:housenumber":"20378","website":"http:\/\/www.maisvietnameserestaurant.com\/","phone":"+1-604-882-9100","opening_hours":"Mo-Su 11:00-21:00","cuisine":"vietnamese","name:en":"Mai's Vietnamese Restaurant","addr:street":"88 Avenue"},"opening_hours":{"Mo":10.0,"Tu":10.0,"We":10.0,"Th":10.0,"Fr":10.0,"Sa":10.0,"Su":10.0},"opening_hours_per_week":70.0}
{"lat":49.1621825,"lon":-122.6579445,"amenity":"restaurant","tags":{"addr:housenumber":"20378","phone":"+1-604-882-1111","opening_hours":"Mo-Th 11:00-22:00; Fr-Su 10:30-22:00","cuisine":"chinese","name:en":"Empire Garden Chinese Restaurant","addr:street":"88 Avenue"},"opening_hours":{"Mo":11.5,"Tu":11.0,"We":11.0,"Th":11.0,"Fr":11.5,"Sa":11.5,"Su":11.5},"opening_hours_per_week":79.0}
{"lat":49.1872734,"lon":-123.1286192,"amenity":"restaurant","tags":{"wheelchair":"yes","addr:housenumber":"8388","website":"http:\/\/topgungroup.com\/restaurants\/richmond-sushi\/","phone":"+1-604-207-7799","smoking":"no","opening_hours":"Su-Th 11:30-14:30,17:30-23:00; Fr-Sa 11:30-14:30,17:30-24:00","cuisine":"sushi","addr:street":"Capstan Way","addr:unit":"1488"},"opening_hours":{"Mo":3.0,"Tu":3.0,"We":3.0,"Th":3.0,"Fr":3.0,"Sa":3.0,"Su":3.0},"opening_hours_per_week":21.0}
{"lat":49.182473,"lon":-123.1340904,"amenity":"restaurant","tags":{"addr:housenumber":"4231","website":"http:\/\/www3.telus.net\/ninkazu\/","phone":"+1-604-279-0212","smoking":"no","opening_hours":"Su-Sa 11:30-15:00,17:00-24:00","cuisine":"sushi","name:en":"Ninkazu Japanese Restaurant","addr:street":"Hazelbridge Way","name:zh":"\u4ec1\u548c\u65e5\u672c\u6599\u7406"},"opening_hours":{"Mo":7.0,"Tu":7.0,"We":7.0,"Th":7.0,"Fr":7.0,"Sa":7.0,"Su":7.0},"opening_hours_per_week":49.0}
{"lat":49.1947944,"lon":-123.1820219,"amenity":"bar","tags":{"opening_hours":"Mo-Su 05:00-23:30","name:fr":"Salon feuille d'\u00e9rable","name:en":"Maple Leaf Lounge"},"opening_hours":{"Mo":18.5,"Tu":18.5,"We":18.5,"Th":18.5,"Fr":18.5,"Sa":18.5,"Su":18.5},"opening_hours_per_week":129.5}
{"lat":49.1342504,"lon":-122.3032426,"amenity":"restaurant","tags":{"opening_hours":"Su-Th 11:00-21:30; Fr-Sa 11:00-22:30","cuisine":"greek","website":"https:\/\/www.elenisgreekrestaurant.ca\/","phone":"+1-604-826-4430"},"opening_hours":{"Mo":10.5,"Tu":10.5,"We":10.5,"Th":10.5,"Fr":11.5,"Sa":11.5,"Su":11.5},"opening_hours_per_week":76.5}
{"lat":49.3100753,"lon":-123.0825195,"amenity":"bar","tags":{"addr:housenumber":"123","website":"http:\/\/www.greenleafbrew.com\/","shop":"alcohol","phone":"+1-604-984-8409","opening_hours":"Mo-Th 11:00-22:00; Fr-Sa 11:00-23:00; Su 11:00-21:00","outdoor_seating":"yes","addr:street":"Carrie Cates Court","addr:postcode":"V7M 3K7","addr:unit":"108","addr:city":"North Vancouver"},"opening_hours":{"Mo":10.0,"Tu":11.0,"We":11.0,"Th":11.0,"Fr":12.0,"Sa":12.0,"Su":10.0},"opening_hours_per_week":77.0}
{"lat":49.2634412,"lon":-123.1399645,"amenity":"restaurant","tags":{"opening_hours":"Mo-Fr 07:00-07:00; Sa 10:00-07:00; Su 10:00-07:00","addr:housenumber":"1550","addr:street":"West Broadway","addr:city":"Vancouver"},"opening_hours":{"Mo":21.0,"Tu":0.0,"We":0.0,"Th":0.0,"Fr":0.0,"Sa":21.0,"Su":21.0},"opening_hours_per_week":63.0}
{"lat":49.1876519,"lon":-122.8447333,"amenity":"restaurant","tags":{"opening_hours":"Su-Th 10:00-23:00; Fr-Sa 10:00-00:00","cuisine":"vietnamese","website":"https:\/\/www.allaboutpho.ca\/","name:en":"All About Pho","phone":"+1-604-498-0222"},"opening_hours":{"Mo":13.0,"Tu":13.0,"We":13.0,"Th":13.0,"Fr":14.0,"Sa":14.0,"Su":14.0},"opening_hours_per_week":94.0}
{"lat":49.1342715,"lon":-122.88959,"amenity":"restaurant","tags":{"addr:housenumber":"12025","website":"http:\/\/spice72.com\/","phone":"+1-604-503-1172","opening_hours":"Su-Th 11:30-22:30; Fr-Sa 11:30-23:00","cuisine":"indian","name:en":"Spice 72 Indian Bistro and Lounge","addr:street":"72 Avenue"},"opening_hours":{"Mo":11.0,"Tu":11.0,"We":11.0,"Th":11.0,"Fr":11.5,"Sa":11.5,"Su":11.5},"opening_hours_per_week":78.5}
{"lat":49.1583091,"lon":-122.8899168,"amenity":"restaurant","tags":{"addr:housenumber":"8556","website":"http:\/\/mahekchaat.ca\/","phone":"+1-604-597-3835","opening_hours":"We-Mo 11:30-21:00","cuisine":"indian","addr:street":"Scott Road"},"opening_hours":{"Mo":9.5,"Tu":9.5,"We":9.5,"Th":9.5,"Fr":9.5,"Sa":9.5,"Su":9.5},"opening_hours_per_week":66.5}
{"lat":49.2740786,"lon":-123.1213858,"amenity":"fast_food","tags":{"opening_hours":"Th-Sa 11:00-16:30","name:en":"Loving Hut Express food van","addr:street":"Davie Street","diet:vegan":"yes"},"opening_hours":{"Mo":0.0,"Tu":0.0,"We":0.0,"Th":5.5,"Fr":5.5,"Sa":5.5,"Su":5.5},"opening_hours_per_week":22.0}
{"lat":49.3737497,"lon":-123.2741383,"amenity":"fast_food","tags":{"addr:housenumber":"6371","phone":"+1-604-913-8973","opening_hours":"We-Mo 12:00-19:30","name:en":"Bay Sushi","addr:street":"Bruce Street","addr:postcode":"V7W 2G4"},"opening_hours":{"Mo":7.5,"Tu":7.5,"We":7.5,"Th":7.5,"Fr":7.5,"Sa":7.5,"Su":7.5},"opening_hours_per_week":52.5}
{"lat":49.2846042,"lon":-123.1245931,"amenity":"cafe","tags":{"brand:wikidata":"Q37158","official_name":"Starbucks Coffee","addr:housenumber":"1099","brand:wikipedia":"en:Starbucks","opening_hours":"Mo-Fr 05:30-00:00; Sa-Su 06:00-00:00","cuisine":"coffee_shop","addr:street":"Robson Street","takeaway":"yes","brand":"Starbucks"},"opening_hours":{"Mo":18.0,"Tu":18.5,"We":18.5,"Th":18.5,"Fr":18.5,"Sa":18.0,"Su":18.0},"opening_hours_per_week":128.0}
{"lat":49.0481537,"lon":-122.2901397,"amenity":"cafe","tags":{"opening_hours":"Tu-Th 14:00-22:00; Fr 14:00-23:00; Sa 12:00-23:00; Su 12:00-18:00","addr:housenumber":"2546","website":"http:\/\/www.abbyboardwalk.com\/","addr:street":"Montrose Avenue","phone":"+1-604-850-0426"},"opening_hours":{"Mo":6.0,"Tu":8.0,"We":8.0,"Th":8.0,"Fr":9.0,"Sa":11.0,"Su":6.0},"opening_hours_per_week":56.0}
{"lat":49.1155327,"lon":-122.6815486,"amenity":"restaurant","tags":{"wheelchair":"yes","website":"https:\/\/www.pho99vn.com\/","air_conditioning":"yes","internet_access":"wlan","internet_access:fee":"no","cuisine":"vietnamese","url":"http:\/\/www.healthspace.ca\/Clients\/FHA\/FHA_Website.nsf\/Food-FacilityHistory?OpenView&RestrictToCategory=E29DD2D76A78D03788257BFA0059145E","addr:city":"Surrey","addr:housenumber":"19533","alt_name":"Pho 99","phone":"+1-604-534-2699","smoking":"no","opening_hours":"Su-Th 11:00-00:00; Fr-Sa 11:00-01:00","addr:street":"Fraser Highway"},"opening_hours":{"Mo":13.0,"Tu":13.0,"We":13.0,"Th":13.0,"Fr":14.0,"Sa":14.0,"Su":14.0},"opening_hours_per_week":94.0}
{"lat":49.1144597,"lon":-122.680159,"amenity":"restaurant","tags":{"addr:housenumber":"19583","website":"http:\/\/www.mongoliegrill.ca","internet_access":"wlan","phone":"+1-604-330-0392","internet_access:fee":"no","opening_hours":"11:00-22:00","cuisine":"mongolian","addr:street":"Fraser Highway","url":"http:\/\/www.healthspace.ca\/Clients\/FHA\/FHA_Website.nsf\/Food-FacilityHistory?OpenView&RestrictToCategory=3E89A79C8617E571882571B0007EFAFB","addr:city":"Surrey"},"opening_hours":{"Mo":11.0,"Tu":11.0,"We":11.0,"Th":11.0,"Fr":11.0,"Sa":11.0,"Su":11.0},"opening_hours_per_week":77.0}
{"lat":49.2204967,"lon":-122.9757219,"amenity":"restaurant","tags":{"wheelchair":"yes","delivery":"no","addr:housenumber":"6038","website":"https:\/\/www.whitespot.ca","drive_through":"yes","opening_hours":"Mo-Su 08:00-23:00","outdoor_seating":"yes","addr:street":"Kingsway","takeaway":"yes","capacity":"60"},"opening_hours":{"Mo":15.0,"Tu":15.0,"We":15.0,"Th":15.0,"Fr":15.0,"Sa":15.0,"Su":15.0},"opening_hours_per_week":105.0}
{"lat":49.2861746,"lon":-123.1169768,"amenity":"restaurant","tags":{"website":"http:\/\/donnellygroup.ca\/the-butcher-bullock\/","cuisine":"burger","addr:postcode":"V6C 1L6","operator":"Donnelly Group","addr:city":"Vancouver","addr:housenumber":"911","bar":"yes","phone":"+1-604-662-8866","smoking":"no","opening_hours":"Mo-Fr 11:30-03:00; Sa-Su 11:00-03:00","brewery":"yes","addr:street":"West Pender Street","email":"butcherandbullock@donnellygroup.ca"},"opening_hours":{"Mo":16.0,"Tu":15.5,"We":15.5,"Th":15.5,"Fr":15.5,"Sa":16.0,"Su":16.0},"opening_hours_per_week":110.0}
{"lat":49.0572877,"lon":-122.2729713,"amenity":"restaurant","tags":{"opening_hours":"We-Mo 11:30-21:00","cuisine":"sushi","website":"https:\/\/www.facebook.com\/kirasushi","addr:unit":"200","start_date":"2015-09-03"},"opening_hours":{"Mo":9.5,"Tu":9.5,"We":9.5,"Th":9.5,"Fr":9.5,"Sa":9.5,"Su":9.5},"opening_hours_per_week":66.5}
{"lat":49.0573488,"lon":-122.2733916,"amenity":"restaurant","tags":{"website":"http:\/\/www.therendezvousrestaurant.com","phone":"+1-604-853-9911","opening_hours":"15:00-22:00","cuisine":"greek","outdoor_seating":"no","addr:unit":"240","operator":"Makris family","start_date":"1994"},"opening_hours":{"Mo":7.0,"Tu":7.0,"We":7.0,"Th":7.0,"Fr":7.0,"Sa":7.0,"Su":7.0},"opening_hours_per_week":49.0}
{"lat":49.2783848,"lon":-123.1220442,"amenity":"cafe","tags":{"opening_hours":"Mo-Th,Su 09:00-23:00; Fr,Sa 09:00-00:00","addr:housenumber":"1002","website":"http:\/\/www.nerowafflebar.com","addr:street":"Seymour Street"},"opening_hours":{"Mo":14.0,"Tu":14.0,"We":14.0,"Th":14.0,"Fr":15.0,"Sa":15.0,"Su":15.0},"opening_hours_per_week":101.0}
{"lat":49.277516,"lon":-123.1270838,"amenity":"fast_food","tags":{"opening_hours":"Mo-Su 11:30-22:00","cuisine":"sushi","addr:housenumber":"738","addr:street":"Davie Street"},"opening_hours":{"Mo":10.5,"Tu":10.5,"We":10.5,"Th":10.5,"Fr":10.5,"Sa":10.5,"Su":10.5},"opening_hours_per_week":73.5}
{"lat":49.0575438,"lon":-122.273748,"amenity":"cafe","tags":{"contact:facebook":"https:\/\/m.facebook.com\/CafeAmarti","website":"http:\/\/www.cafeamarti.com","old_name":"Clayburn Gourmet Gallery","phone":"+1-604-504-0899","opening_hours":"Mo-Sa 08:00-22:00; Su off","addr:unit":"320","operator":"Jimmy and Kelly Kang"},"opening_hours":{"Mo":0.0,"Tu":14.0,"We":14.0,"Th":14.0,"Fr":14.0,"Sa":14.0,"Su":0.0},"opening_hours_per_week":70.0}
{"lat":49.2098852,"lon":-123.0817139,"amenity":"bar","tags":{"website":"http:\/\/www.dogwoodbrew.com\/brewerylounge\/","product":"beer","shop":"alcohol","internet_access":"wlan","internet_access:fee":"no","addr:postcode":"V5X 4R6","addr:city":"Vancouver","addr:housenumber":"8284","phone":"+1-604-325-3693","opening_hours":"We-Th 15:30-20:00; Fr-Su 12:00-20:00","outdoor_seating":"no","addr:street":"Sherbrooke Street","email":"tastingroom@dogwoodbrewing.ca"},"opening_hours":{"Mo":8.0,"Tu":0.0,"We":4.5,"Th":4.5,"Fr":8.0,"Sa":8.0,"Su":8.0},"opening_hours_per_week":41.0}
{"lat":49.2818072,"lon":-123.1240096,"amenity":"restaurant","tags":{"opening_hours":"Mo-Th 11:30-23:00; Fr 11:30-23:00+; Sa,Su 15:00-23:00+","addr:housenumber":"990","addr:street":"Smithe Street"},"opening_hours":{"Mo":8.0,"Tu":11.5,"We":11.5,"Th":11.5,"Fr":11.5,"Sa":8.0,"Su":8.0},"opening_hours_per_week":70.0}
{"lat":49.2801553,"lon":-123.1209311,"amenity":"fast_food","tags":{"addr:housenumber":"675","website":"https:\/\/www.pizzagarden.ca","phone":"+1-604-669-6656","drive_through":"no","opening_hours":"Su 11:00-23:00; Mo-Th 11:00-00:00; Fr, Sa 11:00-03:00","cuisine":"pizza","addr:street":"Smithe Street","payment:debit_cards":"yes","takeaway":"yes","addr:city":"Vancouver"},"opening_hours":{"Mo":13.0,"Tu":13.0,"We":13.0,"Th":13.0,"Fr":16.0,"Sa":16.0,"Su":16.0},"opening_hours_per_week":100.0}
{"lat":49.0494651,"lon":-122.2597961,"amenity":"fast_food","tags":{"alt_name":"Dominos Pizza","website":"https:\/\/order.dominos.ca\/en\/pages\/seo-store-locator.jsp?code=BC&fromMenuJSP=X2&customerStreet=&customerCity=Abbotsford&customerState=British+Columbia&Postal_Code=V3G1C4","ref":"10025","phone":"+1-604-864-0202","opening_hours":"Su-Th 11:00-00:00; Fr-Sa 11:00-02:00","cuisine":"pizza","addr:unit":"104"},"opening_hours":{"Mo":13.0,"Tu":13.0,"We":13.0,"Th":13.0,"Fr":15.0,"Sa":15.0,"Su":15.0},"opening_hours_per_week":97.0}
{"lat":49.0496898,"lon":-122.2598023,"amenity":"fast_food","tags":{"website":"http:\/\/w.subway.com\/en-ca\/findastore?zip=V3G1C4","ref":"38094","phone":"+1-604-850-1690","opening_hours":"Mo-Fr 07:00-22:00; Sa-Su 08:00-22:00","cuisine":"sandwich","addr:unit":"108"},"opening_hours":{"Mo":14.0,"Tu":15.0,"We":15.0,"Th":15.0,"Fr":15.0,"Sa":14.0,"Su":14.0},"opening_hours_per_week":102.0}
{"lat":49.2884539,"lon":-123.1398069,"amenity":"restaurant","tags":{"addr:housenumber":"1074","website":"https:\/\/www.legendarynoodle.ca\/","smoking":"no","opening_hours":"12:00-21:00","cuisine":"vietnamese","outdoor_seating":"yes","addr:street":"Denman Street"},"opening_hours":{"Mo":9.0,"Tu":9.0,"We":9.0,"Th":9.0,"Fr":9.0,"Sa":9.0,"Su":9.0},"opening_hours_per_week":63.0}
{"lat":49.2584009,"lon":-122.9555106,"amenity":"fast_food","tags":{"brand:wikidata":"Q244457","addr:housenumber":"101-2900","phone":"+1-604-420-7822","brand:wikipedia":"en:Subway (restaurant)","opening_hours":"Mo-Fr 07:00-00:00; Sa 08:00-00:00; Su 09:00-23:00","cuisine":"sandwich","addr:street":"Bainbridge Avenue","addr:postcode":"V5A 2S8","takeaway":"yes","brand":"Subway","addr:city":"Burnaby"},"opening_hours":{"Mo":14.0,"Tu":17.0,"We":17.0,"Th":17.0,"Fr":17.0,"Sa":16.0,"Su":14.0},"opening_hours_per_week":112.0}
{"lat":49.282764,"lon":-123.1102832,"amenity":"cafe","tags":{"opening_hours":"Mo-Fr 08:00-18:00; Sa-Su 09:00-17:00","addr:housenumber":"302","website":"https:\/\/www.nemesis.coffee\/","name:en":"Nemesis","addr:street":"West Hastings Street"},"opening_hours":{"Mo":8.0,"Tu":10.0,"We":10.0,"Th":10.0,"Fr":10.0,"Sa":8.0,"Su":8.0},"opening_hours_per_week":64.0}
{"lat":49.290792,"lon":-123.1362563,"amenity":"cafe","tags":{"addr:housenumber":"866","website":"https:\/\/trueconfections.ca\/","phone":"+1-604-682-1292","opening_hours":"Mo-Su 12:00-00:00","name:en":"True Confections","addr:street":"Denman Street","addr:postcode":"V6G 2L9"},"opening_hours":{"Mo":12.0,"Tu":12.0,"We":12.0,"Th":12.0,"Fr":12.0,"Sa":12.0,"Su":12.0},"opening_hours_per_week":84.0}
{"lat":49.2630575,"lon":-123.1164431,"amenity":"restaurant","tags":{"addr:housenumber":"546","website":"https:\/\/www.yolks.ca\/","phone":"+1-604-559-9655","opening_hours":"Mo-Fr 08:00-15:00; Sa-Su 09:00-15:00","cuisine":"breakfast","name:en":"Yolks","addr:street":"Broadway west","addr:postcode":"V5Z 1E9"},"opening_hours":{"Mo":6.0,"Tu":7.0,"We":7.0,"Th":7.0,"Fr":7.0,"Sa":6.0,"Su":6.0},"opening_hours_per_week":46.0}
{"lat":49.1934619,"lon":-122.8457041,"amenity":"restaurant","tags":{"addr:housenumber":"10505","website":"http:\/\/www.rickshawchinesefood.com\/","phone":"+1-604-581-1161","opening_hours":"Su-Th 10:30-22:00; Fr-Sa 10:30-23:00","cuisine":"chinese","addr:street":"King George Boulevard"},"opening_hours":{"Mo":11.5,"Tu":11.5,"We":11.5,"Th":11.5,"Fr":12.5,"Sa":12.5,"Su":12.5},"opening_hours_per_week":83.5}
{"lat":49.1865512,"lon":-122.847648,"amenity":"restaurant","tags":{"addr:housenumber":"10153","website":"http:\/\/www.neptune-restaurant.ca\/","phone":"+1-604-495-8886","opening_hours":"Mo-Su 09:00-16:00,17:00-22:30","cuisine":"chinese","addr:street":"King George Boulevard"},"opening_hours":{"Mo":5.5,"Tu":5.5,"We":5.5,"Th":5.5,"Fr":5.5,"Sa":5.5,"Su":5.5},"opening_hours_per_week":38.5}
{"lat":49.0466407,"lon":-122.3687569,"amenity":"pub","tags":{"opening_hours":"10:00-23:00","description":"Gaming Tap + Grill","website":"http:\/\/www.playtimegaming.ca\/abbotsford-dining"},"opening_hours":{"Mo":13.0,"Tu":13.0,"We":13.0,"Th":13.0,"Fr":13.0,"Sa":13.0,"Su":13.0},"opening_hours_per_week":91.0}
{"lat":49.1992145,"lon":-122.7773115,"amenity":"restaurant","tags":{"addr:housenumber":"16033","phone":"+1-778-395-7078","smoking":"no","opening_hours":"Mo-Sa 11:00-19:00","cuisine":"pizza","addr:street":"108 Avenue","addr:postcode":"V4N 1P2","addr:unit":"406","addr:city":"Surrey"},"opening_hours":{"Mo":8.0,"Tu":8.0,"We":8.0,"Th":8.0,"Fr":8.0,"Sa":8.0,"Su":8.0},"opening_hours_per_week":56.0}
{"lat":49.1390015,"lon":-122.8890829,"amenity":"restaurant","tags":{"addr:housenumber":"7500","website":"http:\/\/www.apnachaat.ca\/","phone":"+1-604-502-8081","smoking":"no","opening_hours":"Mo-Su 11:30-20:00","cuisine":"indian","addr:street":"Scott Road","email":"info@apnachaat.ca"},"opening_hours":{"Mo":8.5,"Tu":8.5,"We":8.5,"Th":8.5,"Fr":8.5,"Sa":8.5,"Su":8.5},"opening_hours_per_week":59.5}
{"lat":49.1985744,"lon":-122.8347803,"amenity":"fast_food","tags":{"addr:housenumber":"13980","website":"http:\/\/pizzanationsurrey.com\/","phone":"+1-604-588-5550","opening_hours":"Mo-Th 11:00-23:00; Fr-Sa 11:00-00:00; Su 12:00-23:00","cuisine":"pizza","name:en":"Pizza Nation","addr:street":"108 Avenue"},"opening_hours":{"Mo":11.0,"Tu":12.0,"We":12.0,"Th":12.0,"Fr":13.0,"Sa":13.0,"Su":11.0},"opening_hours_per_week":84.0}
{"lat":49.1990463,"lon":-122.8132449,"amenity":"fast_food","tags":{"addr:housenumber":"14783","website":"https:\/\/m.facebook.com\/Texx-Big-Burger-197302373717702\/","phone":"+1-604-588-0093","opening_hours":"Mo-Su 11:00-22:00","cuisine":"burger","name:en":"Texx Big Burger","addr:street":"108 Avenue"},"opening_hours":{"Mo":11.0,"Tu":11.0,"We":11.0,"Th":11.0,"Fr":11.0,"Sa":11.0,"Su":11.0},"opening_hours_per_week":77.0}
{"lat":49.2273867,"lon":-122.9997206,"amenity":"fast_food","tags":{"brand:wikidata":"Q38076","wheelchair":"yes","delivery":"no","website":"http:\/\/www.mcdonalds.ca\/","level":"0","brand:wikipedia":"en:McDonald's","cuisine":"burger","takeaway":"yes","addr:housenumber":"4700","phone":"+1-604-718-1005","drive_through":"no","smoking":"no","opening_hours":"24\/7","addr:street":"Kingsway","brand":"McDonald's"},"opening_hours":{"Mo":24.0,"Tu":24.0,"We":24.0,"Th":24.0,"Fr":24.0,"Sa":24.0,"Su":24.0},"opening_hours_per_week":168.0}
{"lat":49.2274236,"lon":-122.9999891,"amenity":"cafe","tags":{"brand:wikidata":"Q175106","wheelchair":"yes","delivery":"no","website":"https:\/\/www.timhortons.com\/","level":"0","brand:wikipedia":"en:Tim Hortons","cuisine":"coffee_shop","takeaway":"yes","addr:housenumber":"4700","phone":"+1-604-439-0027","drive_through":"no","smoking":"no","opening_hours":"Su-Sa 06:30-23:00","addr:street":"Kingsway","brand":"Tim Hortons"},"opening_hours":{"Mo":0.0,"Tu":0.0,"We":0.0,"Th":0.0,"Fr":0.0,"Sa":0.0,"Su":16.5},"opening_hours_per_week":16.5}
{"lat":49.226799,"lon":-122.9937567,"amenity":"restaurant","tags":{"addr:housenumber":"4909","website":"https:\/\/chong-qing-restaurant-online-ordering.securebrygid.com\/","phone":"+1-604-558-0101","smoking":"no","opening_hours":"Su-Sa 11:00-22:00","cuisine":"chinese","outdoor_seating":"no","addr:street":"Kingsway"},"opening_hours":{"Mo":0.0,"Tu":0.0,"We":0.0,"Th":0.0,"Fr":0.0,"Sa":0.0,"Su":11.0},"opening_hours_per_week":11.0}
{"lat":49.2747084,"lon":-123.0692817,"amenity":"cafe","tags":{"toilets:wheelchair":"yes","wheelchair":"yes","addr:housenumber":"1102","phone":"+1-604-879-6652","opening_hours":"07:00-19:00","cuisine":"coffee","addr:street":"Commercial Drive","addr:postcode":"V5L 3X2","addr:city":"Vancouver"},"opening_hours":{"Mo":12.0,"Tu":12.0,"We":12.0,"Th":12.0,"Fr":12.0,"Sa":12.0,"Su":12.0},"opening_hours_per_week":84.0}
{"lat":49.1020894,"lon":-122.6457196,"amenity":"cafe","tags":{"brand:wikidata":"Q37158","official_name":"Starbucks Coffee","website":"https:\/\/www.starbucks.ca\/","internet_access":"wlan","brand:wikipedia":"en:Starbucks","cuisine":"coffee_shop","takeaway":"yes","addr:housenumber":"20831","phone":"+1-604-532-0922","opening_hours":"Mo-Fr 05:00-21:30; Sa-Su 05:30-21:30","name:en":"Starbucks","addr:street":"Fraser Highway","brand":"Starbucks"},"opening_hours":{"Mo":16.0,"Tu":16.5,"We":16.5,"Th":16.5,"Fr":16.5,"Sa":16.0,"Su":16.0},"opening_hours_per_week":114.0}
{"lat":49.1625535,"lon":-122.6359271,"amenity":"cafe","tags":{"addr:housenumber":"8840","website":"https:\/\/www.starbucks.ca\/","internet_access":"wlan","phone":"+1-604-882-9968","opening_hours":"Mo-Fr 05:30-21:00; Sa 06:00-21:00; Su 06:30-21:00","cuisine":"coffee_shop","name:en":"Starbucks","addr:street":"210 Street"},"opening_hours":{"Mo":14.5,"Tu":15.5,"We":15.5,"Th":15.5,"Fr":15.5,"Sa":15.0,"Su":14.5},"opening_hours_per_week":106.0}
{"lat":49.0659014,"lon":-122.3807911,"amenity":"fast_food","tags":{"website":"http:\/\/www.pizza24.ca","phone":"+1-604-746-5100","drive_through":"yes","opening_hours":"Mo-Fr 10:30-02:00; Sa-Su 10:30-03:00","description":"Gas Station location","cuisine":"pizza"},"opening_hours":{"Mo":16.5,"Tu":15.5,"We":15.5,"Th":15.5,"Fr":15.5,"Sa":16.5,"Su":16.5},"opening_hours_per_week":111.5}
{"lat":49.2732428,"lon":-123.2031796,"amenity":"restaurant","tags":{"delivery":"no","addr:housenumber":"1515","opening_hours":"Mo-Su 08:00-21:00","description":"Open mid May through mid September. Good, very reasonably priced breakfasts, lunch and dinner. Licensed. Beer on tap. Staffed with culinary school students.","cuisine":"burger;american","outdoor_seating":"yes","addr:street":"Discovery Street","addr:postcode":"V6R 4L9","takeaway":"yes","addr:city":"Vancouver"},"opening_hours":{"Mo":13.0,"Tu":13.0,"We":13.0,"Th":13.0,"Fr":13.0,"Sa":13.0,"Su":13.0},"opening_hours_per_week":91.0}
{"lat":49.2263571,"lon":-123.0905461,"amenity":"cafe","tags":{"wheelchair":"yes","payment:credit_cards":"yes","smoking":"no","opening_hours":"Tu-Su 08:00-20:00","cuisine":"coffee_shop","outdoor_seating":"no","addr:street":"Fraser Street"},"opening_hours":{"Mo":12.0,"Tu":12.0,"We":12.0,"Th":12.0,"Fr":12.0,"Sa":12.0,"Su":12.0},"opening_hours_per_week":84.0}
{"lat":49.0464428,"lon":-122.2872366,"amenity":"restaurant","tags":{"opening_hours":"Mo-Sa 11:00-20:00; Su off","cuisine":"asian","website":"http:\/\/www.noodlebox.ca"},"opening_hours":{"Mo":0.0,"Tu":9.0,"We":9.0,"Th":9.0,"Fr":9.0,"Sa":9.0,"Su":0.0},"opening_hours_per_week":45.0}
{"lat":49.0464045,"lon":-122.2872963,"amenity":"restaurant","tags":{"opening_hours":"Mo-Sa 11:00-18:00; Su off","cuisine":"sandwich","website":"https:\/\/www.meatandbread.com\/testkitchen"},"opening_hours":{"Mo":0.0,"Tu":7.0,"We":7.0,"Th":7.0,"Fr":7.0,"Sa":7.0,"Su":0.0},"opening_hours_per_week":35.0}
{"lat":49.2481608,"lon":-123.101283,"amenity":"restaurant","tags":{"opening_hours":"Mo-We,Fr 10:30-20:30; Sa,Su 10:30-21:00","addr:housenumber":"4191","website":"https:\/\/www.legendarynoodle.ca\/","addr:street":"Main Street","addr:city":"Vancouver"},"opening_hours":{"Mo":10.5,"Tu":10.0,"We":10.0,"Th":10.0,"Fr":10.0,"Sa":10.5,"Su":10.5},"opening_hours_per_week":71.5}
{"lat":49.2503562,"lon":-123.1007457,"amenity":"restaurant","tags":{"addr:housenumber":"3888","website":"http:\/\/www.sunsuiwah.com","phone":"+1-604-872-8822","opening_hours":"10:00-15:00,17:00-22:30","cuisine":"chinese;dim sum","addr:street":"Main Street"},"opening_hours":{"Mo":5.0,"Tu":5.0,"We":5.0,"Th":5.0,"Fr":5.0,"Sa":5.0,"Su":5.0},"opening_hours_per_week":35.0}
{"lat":49.2040556,"lon":-123.134982,"amenity":"cafe","tags":{"addr:housenumber":"1300","phone":"+16046776396","opening_hours":"Mo-Fr 07:00-19:00; Sa-Su 07:30-19:00","cuisine":"coffee","outdoor_seating":"yes","addr:street":"West 73rd Avenue","addr:postcode":"V6P 3E7","addr:city":"Vancouver"},"opening_hours":{"Mo":11.5,"Tu":12.0,"We":12.0,"Th":12.0,"Fr":12.0,"Sa":11.5,"Su":11.5},"opening_hours_per_week":82.5}
{"lat":49.2792588,"lon":-123.1074257,"amenity":"fast_food","tags":{"opening_hours":"Mo 10:30-14:00; Tu-Th 10:30-01:00; Fr 10:30-03:00; Sa 12:00-03:00; Su 12:00-24:00","addr:housenumber":"638","addr:street":"Abbott Street"},"opening_hours":{"Mo":12.0,"Tu":14.5,"We":14.5,"Th":14.5,"Fr":16.5,"Sa":15.0,"Su":12.0},"opening_hours_per_week":99.0}
{"lat":49.2793502,"lon":-123.1078358,"amenity":"fast_food","tags":{"opening_hours":"Su-Th 11:00-23:00; Fr-Sa 11:00-00:00","cuisine":"pizza","addr:housenumber":"663","addr:street":"Abbott Street","addr:city":"Vancouver"},"opening_hours":{"Mo":12.0,"Tu":12.0,"We":12.0,"Th":12.0,"Fr":13.0,"Sa":13.0,"Su":13.0},"opening_hours_per_week":87.0}
{"lat":49.2791132,"lon":-123.1074224,"amenity":"fast_food","tags":{"opening_hours":"Mo-Fr 09:00-20:00; Sa 11:00-19:00; Su 11:00-18:00","addr:housenumber":"660","addr:street":"Abbott Street"},"opening_hours":{"Mo":7.0,"Tu":11.0,"We":11.0,"Th":11.0,"Fr":11.0,"Sa":8.0,"Su":7.0},"opening_hours_per_week":66.0}
{"lat":49.2799372,"lon":-123.1073562,"amenity":"cafe","tags":{"brand:wikidata":"Q37158","official_name":"Starbucks Coffee","wheelchair":"yes","level":"0","brand:wikipedia":"en:Starbucks","opening_hours":"Mo-Fr 05:30-22:00; Sa 06:00-22:00; Su 06:00-21:00","cuisine":"coffee_shop","takeaway":"yes","brand":"Starbucks","addr:unit":"1089"},"opening_hours":{"Mo":15.0,"Tu":16.5,"We":16.5,"Th":16.5,"Fr":16.5,"Sa":16.0,"Su":15.0},"opening_hours_per_week":112.0}
{"lat":49.1913787,"lon":-122.8449032,"amenity":"fast_food","tags":{"brand:wikidata":"Q244457","addr:housenumber":"10392","website":"http:\/\/www.subway.com\/","phone":"+1-604-580-2554","brand:wikipedia":"en:Subway (restaurant)","opening_hours":"Mo-Fr 07:00-00:00; Sa-Su 08:00-00:00","cuisine":"sandwich","addr:street":"King George Boulevard","takeaway":"yes","brand":"Subway"},"opening_hours":{"Mo":16.0,"Tu":17.0,"We":17.0,"Th":17.0,"Fr":17.0,"Sa":16.0,"Su":16.0},"opening_hours_per_week":116.0}
{"lat":49.0611385,"lon":-122.3807955,"amenity":"fast_food","tags":{"brand:wikidata":"Q38076","website":"http:\/\/www.mcdonalds.ca","internet_access":"wlan","brand:wikipedia":"en:McDonald's","drive_through":"yes","internet_access:fee":"no","opening_hours":"05:00-01:00","cuisine":"burger","takeaway":"yes","brand":"McDonald's","addr:unit":"100"},"opening_hours":{"Mo":20.0,"Tu":20.0,"We":20.0,"Th":20.0,"Fr":20.0,"Sa":20.0,"Su":20.0},"opening_hours_per_week":140.0}
{"lat":49.0612765,"lon":-122.380797,"amenity":"fast_food","tags":{"brand:wikidata":"Q17111672","brand:wikipedia":"en:Panago","opening_hours":"Su-Th 11:00-00:00; Fr-Sa 11:00-01:00","cuisine":"pizza","takeaway":"yes","brand":"Panago","addr:unit":"101"},"opening_hours":{"Mo":13.0,"Tu":13.0,"We":13.0,"Th":13.0,"Fr":14.0,"Sa":14.0,"Su":14.0},"opening_hours_per_week":94.0}
{"lat":49.0613388,"lon":-122.3800095,"amenity":"restaurant","tags":{"opening_hours":"Mo-Sa 11:00-21:00; Su off","cuisine":"vietnamese","website":"http:\/\/m.vilapalace.com","phone":"+1-604-625-5555","addr:unit":"107"},"opening_hours":{"Mo":0.0,"Tu":10.0,"We":10.0,"Th":10.0,"Fr":10.0,"Sa":10.0,"Su":0.0},"opening_hours_per_week":50.0}
{"lat":49.0621643,"lon":-122.3806878,"amenity":"restaurant","tags":{"opening_hours":"Su,Tu-Th 11:00-21:00; Fr-Sa 11:00-22:00; Mo off","website":"http:\/\/rendezvousmtlehman.com","phone":"+1-604-858-9011","addr:unit":"111"},"opening_hours":{"Mo":0.0,"Tu":0.0,"We":10.0,"Th":10.0,"Fr":11.0,"Sa":11.0,"Su":11.0},"opening_hours_per_week":53.0}
{"lat":49.0620501,"lon":-122.3809,"amenity":"restaurant","tags":{"opening_hours":"Mo 17:00-21:00; Tu-Sa 11:00-21:30 || Mo-Fr 12:00-14:00 open \"Lunch Buffet\"","cuisine":"indian","website":"http:\/\/www.currytimecuisine.com","phone":"+1-604-625-1947","addr:unit":"2"},"opening_hours":{"Mo":4.0,"Tu":10.5,"We":10.5,"Th":10.5,"Fr":10.5,"Sa":10.5,"Su":10.5},"opening_hours_per_week":67.0}
{"lat":49.0609014,"lon":-122.3803606,"amenity":"fast_food","tags":{"opening_hours":"Mo-Fr 10:30-21:00; Sa,Su 11:00-21:00","cuisine":"sandwich","addr:unit":"101"},"opening_hours":{"Mo":10.0,"Tu":10.5,"We":10.5,"Th":10.5,"Fr":10.5,"Sa":10.0,"Su":10.0},"opening_hours_per_week":72.0}
{"lat":49.0659656,"lon":-122.3781957,"amenity":"restaurant","tags":{"shop":"confectionery","phone":"+1-604-746-3339","level":"0","opening_hours":"10:00-21:00","cuisine":"indian","addr:unit":"101"},"opening_hours":{"Mo":11.0,"Tu":11.0,"We":11.0,"Th":11.0,"Fr":11.0,"Sa":11.0,"Su":11.0},"opening_hours_per_week":77.0}
{"lat":49.2769121,"lon":-123.0805868,"amenity":"bar","tags":{"addr:housenumber":"1123","shop":"alcohol","phone":"+1-604-255-4997","opening_hours":"Su 12:00-22:00; Mo-Tu 15:00-22:00; We-Th 15:00-23:00; Fr 11:30-00:00; Sa 12:00-00:00","outdoor_seating":"no","addr:street":"Venables Street","addr:postcode":"V6A 2C3","email":"info@luppolobrewing.ca","addr:city":"Vancouver"},"opening_hours":{"Mo":7.0,"Tu":7.0,"We":8.0,"Th":8.0,"Fr":12.5,"Sa":12.0,"Su":12.0},"opening_hours_per_week":66.5}
{"lat":49.2019939,"lon":-122.912085,"amenity":"restaurant","tags":{"opening_hours":"Mo-Su 11:00-22:00","cuisine":"japanese","website":"http:\/\/www.kisushi.ca","phone":"+1-604-521-1833","addr:postcode":"V3M 3N7"},"opening_hours":{"Mo":11.0,"Tu":11.0,"We":11.0,"Th":11.0,"Fr":11.0,"Sa":11.0,"Su":11.0},"opening_hours_per_week":77.0}
{"lat":49.2149746,"lon":-122.9879015,"amenity":"restaurant","tags":{"opening_hours":"We-Su 12:00-14:30,17:00-21:00","cuisine":"sushi","addr:housenumber":"5213","addr:street":"Rumble Street"},"opening_hours":{"Mo":4.0,"Tu":4.0,"We":4.0,"Th":4.0,"Fr":4.0,"Sa":4.0,"Su":4.0},"opening_hours_per_week":28.0}
{"lat":49.1987317,"lon":-122.9768452,"amenity":"cafe","tags":{"brand:wikidata":"Q37158","official_name":"Starbucks Coffee","internet_access":"wlan","brand:wikipedia":"en:Starbucks","internet_access:fee":"no","cuisine":"coffee_shop","takeaway":"yes","addr:unit":"400","addr:housenumber":"5761","opening_hours":"Mo-Fr 05:30-19:30; Sa 06:30-19:30; Su 07:00-18:30","outdoor_seating":"yes","addr:street":"Marine Way","brand":"Starbucks"},"opening_hours":{"Mo":11.5,"Tu":14.0,"We":14.0,"Th":14.0,"Fr":14.0,"Sa":13.0,"Su":11.5},"opening_hours_per_week":92.0}
{"lat":49.2718891,"lon":-123.0694101,"amenity":"restaurant","tags":{"addr:housenumber":"1414","phone":"+1-604-568-3632","opening_hours":"We-Mo 11:30-22:00","cuisine":"sushi","addr:street":"Commercial Drive","addr:postcode":"V5L 3X9","addr:city":"Vancouver"},"opening_hours":{"Mo":10.5,"Tu":10.5,"We":10.5,"Th":10.5,"Fr":10.5,"Sa":10.5,"Su":10.5},"opening_hours_per_week":73.5}
{"lat":49.2115091,"lon":-122.9352254,"amenity":"restaurant","tags":{"addr:housenumber":"831","phone":"+1-604-540-7435","opening_hours":"Mo-Sa 12:00-22:00","cuisine":"mexican","addr:street":"12th Street","addr:postcode":"V3M 4K4"},"opening_hours":{"Mo":10.0,"Tu":10.0,"We":10.0,"Th":10.0,"Fr":10.0,"Sa":10.0,"Su":10.0},"opening_hours_per_week":70.0}
{"lat":49.1332902,"lon":-122.3302497,"amenity":"restaurant","tags":{"opening_hours":"Mo-Th 11:00-23:00; Fr-Sa 11:00-00:00; Su 10:00-23:00","cuisine":"regional","website":"https:\/\/www.fogontheriver.com","phone":"+1-604-820-9612"},"opening_hours":{"Mo":13.0,"Tu":12.0,"We":12.0,"Th":12.0,"Fr":13.0,"Sa":13.0,"Su":13.0},"opening_hours_per_week":88.0}
{"lat":49.1599802,"lon":-122.401675,"amenity":"fast_food","tags":{"opening_hours":"Mo-Fr 07:00-22:00; Sa,Su 08:00-22:00","cuisine":"sandwich","addr:housenumber":"29677","addr:street":"Lougheed Highway"},"opening_hours":{"Mo":14.0,"Tu":15.0,"We":15.0,"Th":15.0,"Fr":15.0,"Sa":14.0,"Su":14.0},"opening_hours_per_week":102.0}
{"lat":49.049635,"lon":-122.2901153,"amenity":"cafe","tags":{"opening_hours":"We-Mo 10:30-16:00; Tu off","website":"https:\/\/m.facebook.com\/ivanateahouse","old_name":"Little White House & Co. Abbey","phone":"+1-604-744-8447"},"opening_hours":{"Mo":5.5,"Tu":0.0,"We":0.0,"Th":5.5,"Fr":5.5,"Sa":5.5,"Su":5.5},"opening_hours_per_week":27.5}
{"lat":49.1969254,"lon":-123.1770082,"amenity":"bar","tags":{"opening_hours":"Mo-Su 04:30-20:00","name:en":"Plaza Premium Lounge"},"opening_hours":{"Mo":15.5,"Tu":15.5,"We":15.5,"Th":15.5,"Fr":15.5,"Sa":15.5,"Su":15.5},"opening_hours_per_week":108.5}
{"lat":49.1699619,"lon":-122.5775788,"amenity":"restaurant","tags":{"website":"https:\/\/www.littledonkey.ca\/","phone":"+1-604-371-4775","opening_hours":"Tu-Su 11:30-19:00","cuisine":"mexican","name:en":"The Little Donkey","addr:street":"Mavis Avenue","email":"katerina@littledonkey.ca"},"opening_hours":{"Mo":7.5,"Tu":7.5,"We":7.5,"Th":7.5,"Fr":7.5,"Sa":7.5,"Su":7.5},"opening_hours_per_week":52.5}
{"lat":49.279512,"lon":-123.1204403,"amenity":"bar","tags":{"opening_hours":"Mo-Su 14:00-00:00","addr:housenumber":"900","website":"http:\/\/www.uvavancouver.com","addr:street":"Seymour St","phone":"+1-604-632-9560"},"opening_hours":{"Mo":10.0,"Tu":10.0,"We":10.0,"Th":10.0,"Fr":10.0,"Sa":10.0,"Su":10.0},"opening_hours_per_week":70.0}
{"lat":49.0889611,"lon":-122.5995001,"amenity":"cafe","tags":{"brand:wikidata":"Q175106","brand:wikipedia":"en:Tim Hortons","opening_hours":"24\/7","cuisine":"coffee_shop","takeaway":"yes","brand":"Tim Hortons"},"opening_hours":{"Mo":24.0,"Tu":24.0,"We":24.0,"Th":24.0,"Fr":24.0,"Sa":24.0,"Su":24.0},"opening_hours_per_week":168.0}
{"lat":49.267356,"lon":-123.1110469,"amenity":"pub","tags":{"opening_hours":"Mo-We 11:00-22:00; Th-Fr 11:00-23:00; Sa 12:00-23:00; Su 12:00-22:00","website":"https:\/\/bigrockbeer.com\/big-rock-urban\/big-rock-urban-overview\/","outdoor_seating":"no","phone":"+1-604-708-8311","email":"info.BRU@bigrockbeer.com"},"opening_hours":{"Mo":10.0,"Tu":11.0,"We":11.0,"Th":12.0,"Fr":12.0,"Sa":11.0,"Su":10.0},"opening_hours_per_week":77.0}
{"lat":49.1047128,"lon":-122.6558244,"amenity":"cafe","tags":{"addr:housenumber":"20411","website":"https:\/\/frostingcupcakery.com\/","opening_hours":"Mo off, Tu-Th 10:00-18:00, Fr-Sa 09:00-18:00, Su 10:00-17:00","addr:street":"Fraser Highway","addr:postcode":"V3A 4G2","addr:city":"Langley"},"opening_hours":{"Mo":7.0,"Tu":8.0,"We":8.0,"Th":8.0,"Fr":9.0,"Sa":9.0,"Su":7.0},"opening_hours_per_week":56.0}
{"lat":49.27993,"lon":-123.1275716,"amenity":"restaurant","tags":{"opening_hours":"Mo-Su 11:00-23:00","name:en":"Burgoo","addr:city":"Vancouver"},"opening_hours":{"Mo":12.0,"Tu":12.0,"We":12.0,"Th":12.0,"Fr":12.0,"Sa":12.0,"Su":12.0},"opening_hours_per_week":84.0}
{"lat":49.2248337,"lon":-122.689108,"amenity":"pub","tags":{"addr:province":"BC","website":"http:\/\/www.foamersfolly.ca","microbrewery":"yes","shop":"alcohol","addr:postcode":"V3Y 2E9","addr:city":"Pitt Meadows","addr:housenumber":"19221","phone":"+1-604-459-7837","smoking":"no","opening_hours":"Su-Th 11:00-23:00; Fr-Sa 11:00-00:30","brewery":"yes","outdoor_seating":"yes","addr:street":"122A Avenue","email":"cheers@foamersfolly.ca"},"opening_hours":{"Mo":12.0,"Tu":12.0,"We":12.0,"Th":12.0,"Fr":13.5,"Sa":13.5,"Su":13.5},"opening_hours_per_week":88.5}
{"lat":49.1071104,"lon":-122.665652,"amenity":"cafe","tags":{"addr:housenumber":"102-20108","website":"http:\/\/lemonbakery.ca\/","opening_hours":"Mo-Fr 09:00-16:30, Sa 09:00-16:00","addr:street":"Fraser Highway","addr:postcode":"V3A 4E5","addr:city":"Langley"},"opening_hours":{"Mo":7.5,"Tu":7.5,"We":7.5,"Th":7.5,"Fr":7.5,"Sa":7.0,"Su":7.0},"opening_hours_per_week":51.5}
{"lat":49.2802382,"lon":-123.1232584,"amenity":"cafe","tags":{"opening_hours":"Mo-Fr 07:30-18:00; Sa-Su 11:00-16:00","addr:housenumber":"968","name:en":"Railtown Cafe"},"opening_hours":{"Mo":5.0,"Tu":10.5,"We":10.5,"Th":10.5,"Fr":10.5,"Sa":5.0,"Su":5.0},"opening_hours_per_week":57.0}
{"lat":49.2798153,"lon":-123.1236381,"amenity":"restaurant","tags":{"brand:wikidata":"Q5503051","brand:wikipedia":"en:Freshii","opening_hours":"Mo-Fr 11:00-20:00; Sa-Su 11:00-17:00","cuisine":"salad","name:en":"Freshii","addr:street":"Nelson Street","brand":"Freshii"},"opening_hours":{"Mo":6.0,"Tu":9.0,"We":9.0,"Th":9.0,"Fr":9.0,"Sa":6.0,"Su":6.0},"opening_hours_per_week":54.0}
{"lat":49.2835624,"lon":-123.1038811,"amenity":"pub","tags":{"addr:housenumber":"7","website":"https:\/\/theportsidepub.com\/","phone":"+1-604-559-6333","opening_hours":"Mo-Th 17:00-02:00; Fr 16:30-03:00; Sa 17:00-03:00; Su 20:00-02:00","addr:street":"Alexander Street","addr:postcode":"V6A 1E9"},"opening_hours":{"Mo":6.0,"Tu":9.0,"We":9.0,"Th":9.0,"Fr":10.5,"Sa":10.0,"Su":6.0},"opening_hours_per_week":59.5}
{"lat":49.1633285,"lon":-123.1363369,"amenity":"restaurant","tags":{"website":"http:\/\/memorycorner8.com","phone":"+1-604-284-5434","opening_hours":"Su-Th 11:00-22:00; Fr-Sa 11:30-23:00","cuisine":"chinese","name:en":"Memory Corner","name:zh_pinyin":"\u6709\u9999\u53f0\u7063\u6599\u7406"},"opening_hours":{"Mo":11.0,"Tu":11.0,"We":11.0,"Th":11.0,"Fr":11.5,"Sa":11.5,"Su":11.5},"opening_hours_per_week":78.5}
{"lat":49.172236,"lon":-123.1358351,"amenity":"restaurant","tags":{"website":"http:\/\/dinesty.ca\/","cuisine":"chinese","addr:postcode":"V6X 3J9","addr:unit":"160","addr:city":"Richmond","addr:housenumber":"8111","phone":"+1-604-303-7772","smoking":"no","opening_hours":"Mo-Su 11:00-15:00,17:30-22:00","name:en":"Dinesty Dumpling House","addr:street":"Ackroyd Road","name:zh_pinyin":"\u805a"},"opening_hours":{"Mo":4.5,"Tu":4.5,"We":4.5,"Th":4.5,"Fr":4.5,"Sa":4.5,"Su":4.5},"opening_hours_per_week":31.5}
{"lat":49.1809803,"lon":-123.1348283,"amenity":"fast_food","tags":{"opening_hours":"Fr-We 10:30-19:00","cuisine":"chinese","name:en":"Lai Leung","phone":"+1-604-247-8893","name:zh_pinyin":"\u68a8\u826f\u8a18\u725b\u96dc\u86c7\u7fb9\u5c08\u5bb6"},"opening_hours":{"Mo":8.5,"Tu":8.5,"We":8.5,"Th":8.5,"Fr":8.5,"Sa":8.5,"Su":8.5},